{
"type": "FeatureCollection",
"name": "datos_censos",
"crs": { "type": "name", "properties": { "name": "urn:ogc:def:crs:OGC:1.3:CRS84" } },
"features": [
{ "type": "Feature", "properties": { "Municipality": "Acasio", "Department": "Potosí", "Province": "General Bilbao", "pob_2012": "6.161", "pob_2024": "4.434", "diferencia": -1.727, "incremento_porcentual": "-28,03" }, "geometry": { "type": "Point", "coordinates": [ -66.014455125136948, -18.049961913445809 ] } },
{ "type": "Feature", "properties": { "Municipality": "Achacachi", "Department": "La Paz", "Province": "Omasuyos", "pob_2012": "46.058", "pob_2024": "47.064", "diferencia": 1.006, "incremento_porcentual": "2,18" }, "geometry": { "type": "Point", "coordinates": [ -68.66346541394951, -16.016726600199082 ] } },
{ "type": "Feature", "properties": { "Municipality": "Achocalla", "Department": "La Paz", "Province": "Murillo", "pob_2012": "22.179", "pob_2024": "46.068", "diferencia": 23.889, "incremento_porcentual": "107,71" }, "geometry": { "type": "Point", "coordinates": [ -68.125270813228852, -16.662346628004535 ] } },
{ "type": "Feature", "properties": { "Municipality": "Aiquile", "Department": "Cochabamba", "Province": "Campero", "pob_2012": "23.267", "pob_2024": "23.000", "diferencia": -267.0, "incremento_porcentual": "-1,15" }, "geometry": { "type": "Point", "coordinates": [ -65.103804877249786, -18.323307106835617 ] } },
{ "type": "Feature", "properties": { "Municipality": "Alalay", "Department": "Cochabamba", "Province": "Mizque", "pob_2012": "3.447", "pob_2024": "3.461", "diferencia": 14.0, "incremento_porcentual": "0,41" }, "geometry": { "type": "Point", "coordinates": [ -65.630008390872291, -17.773272880584653 ] } },
{ "type": "Feature", "properties": { "Municipality": "Villa Alcalá", "Department": "Chuquisaca", "Province": "Tomina", "pob_2012": "4.902", "pob_2024": "3.752", "diferencia": -1.15, "incremento_porcentual": "-23,46" }, "geometry": { "type": "Point", "coordinates": [ -64.37387350701384, -19.432094855995008 ] } },
{ "type": "Feature", "properties": { "Municipality": "Alto Beni", "Department": "La Paz", "Province": "Caranavi", "pob_2012": "11.194", "pob_2024": "10.499", "diferencia": -695.0, "incremento_porcentual": "-6,21" }, "geometry": { "type": "Point", "coordinates": [ -67.389582090797603, -15.605529039684289 ] } },
{ "type": "Feature", "properties": { "Municipality": "Santiago de Andamarca", "Department": "Oruro", "Province": "Sur Carangas", "pob_2012": "5.216", "pob_2024": "6.300", "diferencia": 1.084, "incremento_porcentual": "20,78" }, "geometry": { "type": "Point", "coordinates": [ -67.381086302533831, -18.892559230832131 ] } },
{ "type": "Feature", "properties": { "Municipality": "Antequera", "Department": "Oruro", "Province": "Poopó", "pob_2012": "3.264", "pob_2024": "3.614", "diferencia": 350.0, "incremento_porcentual": "10,72" }, "geometry": { "type": "Point", "coordinates": [ -66.775474947735475, -18.524940527675557 ] } },
{ "type": "Feature", "properties": { "Municipality": "Anzaldo", "Department": "Cochabamba", "Province": "Esteban Arze", "pob_2012": "7.192", "pob_2024": "7.322", "diferencia": 130.0, "incremento_porcentual": "1,81" }, "geometry": { "type": "Point", "coordinates": [ -65.916691978805346, -17.843677986686561 ] } },
{ "type": "Feature", "properties": { "Municipality": "Apolo", "Department": "La Paz", "Province": "Franz Tamayo", "pob_2012": "20.308", "pob_2024": "19.047", "diferencia": -1.261, "incremento_porcentual": "-6,21" }, "geometry": { "type": "Point", "coordinates": [ -68.232676695355153, -14.658538660156264 ] } },
{ "type": "Feature", "properties": { "Municipality": "Arampampa", "Department": "Potosí", "Province": "General Bilbao", "pob_2012": "4.170", "pob_2024": "3.623", "diferencia": -547.0, "incremento_porcentual": "-13,12" }, "geometry": { "type": "Point", "coordinates": [ -66.12593229361363, -17.945273500201321 ] } },
{ "type": "Feature", "properties": { "Municipality": "Arani", "Department": "Cochabamba", "Province": "Arani", "pob_2012": "9.504", "pob_2024": "11.411", "diferencia": 1.907, "incremento_porcentual": "20,07" }, "geometry": { "type": "Point", "coordinates": [ -65.726624151367943, -17.592724499479299 ] } },
{ "type": "Feature", "properties": { "Municipality": "Arbieto", "Department": "Cochabamba", "Province": "Esteban Arze", "pob_2012": "17.445", "pob_2024": "30.454", "diferencia": 13.009, "incremento_porcentual": "74,57" }, "geometry": { "type": "Point", "coordinates": [ -66.065000157657721, -17.558274575344466 ] } },
{ "type": "Feature", "properties": { "Municipality": "Arque", "Department": "Cochabamba", "Province": "Arque", "pob_2012": "10.597", "pob_2024": "10.635", "diferencia": 38.0, "incremento_porcentual": "0,36" }, "geometry": { "type": "Point", "coordinates": [ -66.416735501700984, -17.825780592259381 ] } },
{ "type": "Feature", "properties": { "Municipality": "Ascensión de Guarayos", "Department": "Santa Cruz", "Province": "Guarayos", "pob_2012": "27.070", "pob_2024": "34.002", "diferencia": 6.932, "incremento_porcentual": "25,61" }, "geometry": { "type": "Point", "coordinates": [ -63.430822972192097, -15.343949424684595 ] } },
{ "type": "Feature", "properties": { "Municipality": "Atocha", "Department": "Potosí", "Province": "Sur Chichas", "pob_2012": "11.234", "pob_2024": "9.364", "diferencia": -1.87, "incremento_porcentual": "-16,65" }, "geometry": { "type": "Point", "coordinates": [ -66.169894928657826, -21.070374623160212 ] } },
{ "type": "Feature", "properties": { "Municipality": "Aucapata", "Department": "La Paz", "Province": "Muñecas", "pob_2012": "5.495", "pob_2024": "6.720", "diferencia": 1.225, "incremento_porcentual": "22,29" }, "geometry": { "type": "Point", "coordinates": [ -68.699437048323617, -15.438130672057053 ] } },
{ "type": "Feature", "properties": { "Municipality": "Ayata", "Department": "La Paz", "Province": "Muñecas", "pob_2012": "8.410", "pob_2024": "8.957", "diferencia": 547.0, "incremento_porcentual": "6,50" }, "geometry": { "type": "Point", "coordinates": [ -68.710992880239317, -15.320011990684126 ] } },
{ "type": "Feature", "properties": { "Municipality": "Ayo Ayo", "Department": "La Paz", "Province": "Aroma", "pob_2012": "7.798", "pob_2024": "11.251", "diferencia": 3.453, "incremento_porcentual": "44,28" }, "geometry": { "type": "Point", "coordinates": [ -68.019668170739735, -17.076683852707085 ] } },
{ "type": "Feature", "properties": { "Municipality": "Independencia", "Department": "Cochabamba", "Province": "Ayopaya", "pob_2012": "23.658", "pob_2024": "21.717", "diferencia": -1.941, "incremento_porcentual": "-8,20" }, "geometry": { "type": "Point", "coordinates": [ -66.805273011644857, -17.143875555243682 ] } },
{ "type": "Feature", "properties": { "Municipality": "Azurduy", "Department": "Chuquisaca", "Province": "Azurduy", "pob_2012": "10.652", "pob_2024": "7.861", "diferencia": -2.791, "incremento_porcentual": "-26,20" }, "geometry": { "type": "Point", "coordinates": [ -64.43290785438559, -20.181346905479369 ] } },
{ "type": "Feature", "properties": { "Municipality": "Batallas", "Department": "La Paz", "Province": "Los Andes", "pob_2012": "17.426", "pob_2024": "20.503", "diferencia": 3.077, "incremento_porcentual": "17,66" }, "geometry": { "type": "Point", "coordinates": [ -68.433610667571259, -16.164311787508225 ] } },
{ "type": "Feature", "properties": { "Municipality": "Baures", "Department": "Beni", "Province": "Iténez", "pob_2012": "5.965", "pob_2024": "6.564", "diferencia": 599.0, "incremento_porcentual": "10,04" }, "geometry": { "type": "Point", "coordinates": [ -62.875484678593963, -13.62513942529687 ] } },
{ "type": "Feature", "properties": { "Municipality": "Belén de Andamarca", "Department": "Oruro", "Province": "Sur Carangas", "pob_2012": "2.016", "pob_2024": "2.996", "diferencia": 980.0, "incremento_porcentual": "48,61" }, "geometry": { "type": "Point", "coordinates": [ -67.749802264221614, -18.892051378037415 ] } },
{ "type": "Feature", "properties": { "Municipality": "Bella Flor", "Department": "Pando", "Province": "Nicolás Suárez", "pob_2012": "3.909", "pob_2024": "3.632", "diferencia": -277.0, "incremento_porcentual": "-7,09" }, "geometry": { "type": "Point", "coordinates": [ -67.931509045600592, -10.932069375934407 ] } },
{ "type": "Feature", "properties": { "Municipality": "Bermejo", "Department": "Tarija", "Province": "Arce", "pob_2012": "34.505", "pob_2024": "36.967", "diferencia": 2.462, "incremento_porcentual": "7,14" }, "geometry": { "type": "Point", "coordinates": [ -64.329487396705133, -22.673128239287458 ] } },
{ "type": "Feature", "properties": { "Municipality": "Betanzos", "Department": "Potosí", "Province": "Cornelio Saavedra", "pob_2012": "33.922", "pob_2024": "31.772", "diferencia": -2.15, "incremento_porcentual": "-6,34" }, "geometry": { "type": "Point", "coordinates": [ -65.227592151424773, -19.458224880231302 ] } },
{ "type": "Feature", "properties": { "Municipality": "Bolívar", "Department": "Cochabamba", "Province": "Bolivar", "pob_2012": "7.279", "pob_2024": "8.197", "diferencia": 918.0, "incremento_porcentual": "12,61" }, "geometry": { "type": "Point", "coordinates": [ -66.644573269726962, -18.015604138829488 ] } },
{ "type": "Feature", "properties": { "Municipality": "Bolpebra", "Department": "Pando", "Province": "Nicolás Suárez", "pob_2012": "2.173", "pob_2024": "2.390", "diferencia": 217.0, "incremento_porcentual": "9,99" }, "geometry": { "type": "Point", "coordinates": [ -69.226291492042122, -11.169955381585014 ] } },
{ "type": "Feature", "properties": { "Municipality": "Boyuibe", "Department": "Santa Cruz", "Province": "Cordillera", "pob_2012": "5.087", "pob_2024": "5.603", "diferencia": 516.0, "incremento_porcentual": "10,14" }, "geometry": { "type": "Point", "coordinates": [ -63.076204908763927, -20.338845698708919 ] } },
{ "type": "Feature", "properties": { "Municipality": "Buena Vista", "Department": "Santa Cruz", "Province": "Ichilo", "pob_2012": "12.879", "pob_2024": "13.586", "diferencia": 707.0, "incremento_porcentual": "5,49" }, "geometry": { "type": "Point", "coordinates": [ -63.756010975755146, -17.697815543494528 ] } },
{ "type": "Feature", "properties": { "Municipality": "Cabezas", "Department": "Santa Cruz", "Province": "Cordillera", "pob_2012": "26.434", "pob_2024": "31.160", "diferencia": 4.726, "incremento_porcentual": "17,88" }, "geometry": { "type": "Point", "coordinates": [ -63.268486444284363, -18.463873782409337 ] } },
{ "type": "Feature", "properties": { "Municipality": "Cairoma", "Department": "La Paz", "Province": "Loayza", "pob_2012": "11.355", "pob_2024": "13.657", "diferencia": 2.302, "incremento_porcentual": "20,27" }, "geometry": { "type": "Point", "coordinates": [ -67.576889849279851, -16.845820700920303 ] } },
{ "type": "Feature", "properties": { "Municipality": "Caiza D", "Department": "Potosí", "Province": "José María Linares", "pob_2012": "12.067", "pob_2024": "12.891", "diferencia": 824.0, "incremento_porcentual": "6,83" }, "geometry": { "type": "Point", "coordinates": [ -65.653633049920217, -20.011275719880199 ] } },
{ "type": "Feature", "properties": { "Municipality": "Cajuata", "Department": "La Paz", "Province": "Inquisivi", "pob_2012": "10.458", "pob_2024": "15.485", "diferencia": 5.027, "incremento_porcentual": "48,07" }, "geometry": { "type": "Point", "coordinates": [ -67.247452868935994, -16.637524248228985 ] } },
{ "type": "Feature", "properties": { "Municipality": "Calacoto", "Department": "La Paz", "Province": "Pacajes", "pob_2012": "9.879", "pob_2024": "12.057", "diferencia": 2.178, "incremento_porcentual": "22,05" }, "geometry": { "type": "Point", "coordinates": [ -68.772259755411653, -17.562432370459067 ] } },
{ "type": "Feature", "properties": { "Municipality": "Calamarca", "Department": "La Paz", "Province": "Aroma", "pob_2012": "12.413", "pob_2024": "15.279", "diferencia": 2.866, "incremento_porcentual": "23,09" }, "geometry": { "type": "Point", "coordinates": [ -68.112472666651357, -16.890443149284781 ] } },
{ "type": "Feature", "properties": { "Municipality": "Camargo", "Department": "Chuquisaca", "Province": "Nor Cinti", "pob_2012": "15.644", "pob_2024": "14.712", "diferencia": -932.0, "incremento_porcentual": "-5,96" }, "geometry": { "type": "Point", "coordinates": [ -65.156022655587591, -20.60255412340198 ] } },
{ "type": "Feature", "properties": { "Municipality": "Camiri", "Department": "Santa Cruz", "Province": "Cordillera", "pob_2012": "33.838", "pob_2024": "32.656", "diferencia": -1.182, "incremento_porcentual": "-3,49" }, "geometry": { "type": "Point", "coordinates": [ -63.487869847955473, -20.034761245932135 ] } },
{ "type": "Feature", "properties": { "Municipality": "Capinota", "Department": "Cochabamba", "Province": "Capinota", "pob_2012": "19.477", "pob_2024": "19.291", "diferencia": -186.0, "incremento_porcentual": "-0,95" }, "geometry": { "type": "Point", "coordinates": [ -66.226829516783056, -17.777604120003986 ] } },
{ "type": "Feature", "properties": { "Municipality": "Caquiaviri", "Department": "La Paz", "Province": "Pacajes", "pob_2012": "14.687", "pob_2024": "15.464", "diferencia": 777.0, "incremento_porcentual": "5,29" }, "geometry": { "type": "Point", "coordinates": [ -68.818074401442345, -17.085361247144228 ] } },
{ "type": "Feature", "properties": { "Municipality": "Caracollo", "Department": "Oruro", "Province": "Cercado", "pob_2012": "23.115", "pob_2024": "23.068", "diferencia": -47.0, "incremento_porcentual": "-0,20" }, "geometry": { "type": "Point", "coordinates": [ -67.292268035325634, -17.691432106384571 ] } },
{ "type": "Feature", "properties": { "Municipality": "Caranavi", "Department": "La Paz", "Province": "Caranavi", "pob_2012": "50.330", "pob_2024": "59.034", "diferencia": 8.704, "incremento_porcentual": "17,29" }, "geometry": { "type": "Point", "coordinates": [ -67.487924880073194, -15.844864490797178 ] } },
{ "type": "Feature", "properties": { "Municipality": "Carangas", "Department": "Oruro", "Province": "Mejillones", "pob_2012": "840", "pob_2024": "1.130", "diferencia": 290.0, "incremento_porcentual": "34,52" }, "geometry": { "type": "Point", "coordinates": [ -68.665444765043745, -18.901569463555639 ] } },
{ "type": "Feature", "properties": { "Municipality": "Caraparí", "Department": "Tarija", "Province": "Gran Chaco", "pob_2012": "15.366", "pob_2024": "15.650", "diferencia": 284.0, "incremento_porcentual": "1,85" }, "geometry": { "type": "Point", "coordinates": [ -63.898919538998797, -21.815964316449215 ] } },
{ "type": "Feature", "properties": { "Municipality": "Caripuyo", "Department": "Potosí", "Province": "Alonso de Ibáñez", "pob_2012": "8.704", "pob_2024": "8.427", "diferencia": -277.0, "incremento_porcentual": "-3,18" }, "geometry": { "type": "Point", "coordinates": [ -66.593305285278433, -18.180199243743647 ] } },
{ "type": "Feature", "properties": { "Municipality": "Catacora", "Department": "La Paz", "Province": "General José Manuel Pando", "pob_2012": "2.881", "pob_2024": "5.326", "diferencia": 2.445, "incremento_porcentual": "84,87" }, "geometry": { "type": "Point", "coordinates": [ -69.480493562312716, -17.252724390339427 ] } },
{ "type": "Feature", "properties": { "Municipality": "Chacarilla", "Department": "La Paz", "Province": "Gualberto Villarroel", "pob_2012": "2.004", "pob_2024": "2.031", "diferencia": 27.0, "incremento_porcentual": "1,35" }, "geometry": { "type": "Point", "coordinates": [ -68.16998336735918, -17.548600738923714 ] } },
{ "type": "Feature", "properties": { "Municipality": "Challapata", "Department": "Oruro", "Province": "Abaroa", "pob_2012": "28.304", "pob_2024": "35.339", "diferencia": 7.035, "incremento_porcentual": "24,86" }, "geometry": { "type": "Point", "coordinates": [ -66.552695888303646, -18.89054278641926 ] } },
{ "type": "Feature", "properties": { "Municipality": "Chaquí", "Department": "Potosí", "Province": "Cornelio Saavedra", "pob_2012": "9.910", "pob_2024": "9.262", "diferencia": -648.0, "incremento_porcentual": "-6,54" }, "geometry": { "type": "Point", "coordinates": [ -65.546049548686213, -19.624991747025597 ] } },
{ "type": "Feature", "properties": { "Municipality": "Charagua", "Department": "Santa Cruz", "Province": "Cordillera", "pob_2012": "32.186", "pob_2024": "39.262", "diferencia": 7.076, "incremento_porcentual": "21,98" }, "geometry": { "type": "Point", "coordinates": [ -61.600971081819466, -19.090487671147056 ] } },
{ "type": "Feature", "properties": { "Municipality": "Charaña", "Department": "La Paz", "Province": "Pacajes", "pob_2012": "3.246", "pob_2024": "4.124", "diferencia": 878.0, "incremento_porcentual": "27,05" }, "geometry": { "type": "Point", "coordinates": [ -69.156992173881918, -17.659153441965991 ] } },
{ "type": "Feature", "properties": { "Municipality": "Charazani", "Department": "La Paz", "Province": "Bautista Saavedra", "pob_2012": "13.023", "pob_2024": "15.854", "diferencia": 2.831, "incremento_porcentual": "21,74" }, "geometry": { "type": "Point", "coordinates": [ -68.773747731013529, -15.096564263223597 ] } },
{ "type": "Feature", "properties": { "Municipality": "Chayanta", "Department": "Potosí", "Province": "Rafael Bustillo", "pob_2012": "16.129", "pob_2024": "16.008", "diferencia": -121.0, "incremento_porcentual": "-0,75" }, "geometry": { "type": "Point", "coordinates": [ -66.350844598316286, -18.414350013185 ] } },
{ "type": "Feature", "properties": { "Municipality": "Chimoré", "Department": "Cochabamba", "Province": "Carrasco", "pob_2012": "21.736", "pob_2024": "27.374", "diferencia": 5.638, "incremento_porcentual": "25,94" }, "geometry": { "type": "Point", "coordinates": [ -64.911369502343078, -16.558574855308002 ] } },
{ "type": "Feature", "properties": { "Municipality": "Chipaya", "Department": "Oruro", "Province": "Sabaya", "pob_2012": "2.003", "pob_2024": "2.366", "diferencia": 363.0, "incremento_porcentual": "18,12" }, "geometry": { "type": "Point", "coordinates": [ -68.047791409060522, -19.062669891542203 ] } },
{ "type": "Feature", "properties": { "Municipality": "Choque Cota", "Department": "Oruro", "Province": "Carangas", "pob_2012": "1.850", "pob_2024": "2.980", "diferencia": 1.13, "incremento_porcentual": "61,08" }, "geometry": { "type": "Point", "coordinates": [ -67.954954284836163, -18.122091982262663 ] } },
{ "type": "Feature", "properties": { "Municipality": "Chua Cocani", "Department": "La Paz", "Province": "Omasuyos", "pob_2012": "5.003", "pob_2024": "7.183", "diferencia": 2.18, "incremento_porcentual": "43,57" }, "geometry": { "type": "Point", "coordinates": [ -68.751736282337689, -16.158324748133062 ] } },
{ "type": "Feature", "properties": { "Municipality": "Chulumani", "Department": "La Paz", "Province": "Sud Yungas", "pob_2012": "17.823", "pob_2024": "18.278", "diferencia": 455.0, "incremento_porcentual": "2,55" }, "geometry": { "type": "Point", "coordinates": [ -67.537567953545334, -16.389047343408098 ] } },
{ "type": "Feature", "properties": { "Municipality": "Chuma", "Department": "La Paz", "Province": "Muñecas", "pob_2012": "11.473", "pob_2024": "17.671", "diferencia": 6.198, "incremento_porcentual": "54,02" }, "geometry": { "type": "Point", "coordinates": [ -68.865669466158337, -15.593162566440204 ] } },
{ "type": "Feature", "properties": { "Municipality": "Chuquihuta", "Department": "Potosí", "Province": "Rafael Bustillo", "pob_2012": "8.019", "pob_2024": "8.170", "diferencia": 151.0, "incremento_porcentual": "1,88" }, "geometry": { "type": "Point", "coordinates": [ -66.353346689634748, -18.632207179647828 ] } },
{ "type": "Feature", "properties": { "Municipality": "Ckochas", "Department": "Potosí", "Province": "José María Linares", "pob_2012": "15.812", "pob_2024": "14.301", "diferencia": -1.511, "incremento_porcentual": "-9,56" }, "geometry": { "type": "Point", "coordinates": [ -65.022115668430814, -19.742126835071939 ] } },
{ "type": "Feature", "properties": { "Municipality": "Cliza", "Department": "Cochabamba", "Province": "Germán Jordán", "pob_2012": "21.899", "pob_2024": "20.877", "diferencia": -1.022, "incremento_porcentual": "-4,67" }, "geometry": { "type": "Point", "coordinates": [ -65.936552826954625, -17.581921029149413 ] } },
{ "type": "Feature", "properties": { "Municipality": "Cobija", "Department": "Pando", "Province": "Nicolás Suárez", "pob_2012": "46.267", "pob_2024": "54.386", "diferencia": 8.119, "incremento_porcentual": "17,55" }, "geometry": { "type": "Point", "coordinates": [ -68.87189225520261, -11.079129471887914 ] } },
{ "type": "Feature", "properties": { "Municipality": "Cocapata", "Department": "Cochabamba", "Province": "Ayopaya", "pob_2012": "18.076", "pob_2024": "19.467", "diferencia": 1.391, "incremento_porcentual": "7,70" }, "geometry": { "type": "Point", "coordinates": [ -66.552206660870155, -16.489093101240499 ] } },
{ "type": "Feature", "properties": { "Municipality": "Cochabamba", "Department": "Cochabamba", "Province": "Cercado", "pob_2012": "632.013", "pob_2024": "661.484", "diferencia": 29.471, "incremento_porcentual": "4,66" }, "geometry": { "type": "Point", "coordinates": [ -66.168689847477722, -17.42509213879222 ] } },
{ "type": "Feature", "properties": { "Municipality": "Coipasa", "Department": "Oruro", "Province": "Sabaya", "pob_2012": "903", "pob_2024": "1.405", "diferencia": 502.0, "incremento_porcentual": "55,59" }, "geometry": { "type": "Point", "coordinates": [ -68.312284602089122, -19.327196586506656 ] } },
{ "type": "Feature", "properties": { "Municipality": "Colcapirhua", "Department": "Cochabamba", "Province": "Quillacollo", "pob_2012": "51.990", "pob_2024": "66.235", "diferencia": 14.245, "incremento_porcentual": "27,40" }, "geometry": { "type": "Point", "coordinates": [ -66.232528747964594, -17.390655438513861 ] } },
{ "type": "Feature", "properties": { "Municipality": "Colcha K", "Department": "Potosí", "Province": "Nor Lipez", "pob_2012": "12.997", "pob_2024": "12.638", "diferencia": -359.0, "incremento_porcentual": "-2,76" }, "geometry": { "type": "Point", "coordinates": [ -67.31419965133918, -21.204410269440679 ] } },
{ "type": "Feature", "properties": { "Municipality": "Collana", "Department": "La Paz", "Province": "Aroma", "pob_2012": "5.042", "pob_2024": "5.525", "diferencia": 483.0, "incremento_porcentual": "9,58" }, "geometry": { "type": "Point", "coordinates": [ -68.301314524028172, -16.903798640487462 ] } },
{ "type": "Feature", "properties": { "Municipality": "Colomi", "Department": "Cochabamba", "Province": "Chapare", "pob_2012": "19.285", "pob_2024": "19.318", "diferencia": 33.0, "incremento_porcentual": "0,17" }, "geometry": { "type": "Point", "coordinates": [ -65.920589107237944, -17.233147098810441 ] } },
{ "type": "Feature", "properties": { "Municipality": "Colpa Belgica", "Department": "Santa Cruz", "Province": "Sara", "pob_2012": "6.069", "pob_2024": "6.020", "diferencia": -49.0, "incremento_porcentual": "-0,81" }, "geometry": { "type": "Point", "coordinates": [ -63.292394711913261, -17.543565497455329 ] } },
{ "type": "Feature", "properties": { "Municipality": "Colquechaca", "Department": "Potosí", "Province": "Chayanta", "pob_2012": "35.199", "pob_2024": "16.163", "diferencia": -19.036, "incremento_porcentual": "-54,08" }, "geometry": { "type": "Point", "coordinates": [ -66.013556090146963, -18.808102026982905 ] } },
{ "type": "Feature", "properties": { "Municipality": "Colquencha", "Department": "La Paz", "Province": "Aroma", "pob_2012": "9.879", "pob_2024": "12.344", "diferencia": 2.465, "incremento_porcentual": "24,95" }, "geometry": { "type": "Point", "coordinates": [ -68.257014591348522, -16.991913579301709 ] } },
{ "type": "Feature", "properties": { "Municipality": "Colquiri", "Department": "La Paz", "Province": "Inquisivi", "pob_2012": "19.620", "pob_2024": "23.456", "diferencia": 3.836, "incremento_porcentual": "19,55" }, "geometry": { "type": "Point", "coordinates": [ -66.994192059694683, -17.421298487741542 ] } },
{ "type": "Feature", "properties": { "Municipality": "Comanche", "Department": "La Paz", "Province": "Pacajes", "pob_2012": "3.880", "pob_2024": "5.201", "diferencia": 1.321, "incremento_porcentual": "34,05" }, "geometry": { "type": "Point", "coordinates": [ -68.450184570671652, -16.950445687573009 ] } },
{ "type": "Feature", "properties": { "Municipality": "Comarapa", "Department": "Santa Cruz", "Province": "Manuel María Caballero", "pob_2012": "15.919", "pob_2024": "17.132", "diferencia": 1.213, "incremento_porcentual": "7,62" }, "geometry": { "type": "Point", "coordinates": [ -64.432030145989742, -17.802311540091591 ] } },
{ "type": "Feature", "properties": { "Municipality": "Combaya", "Department": "La Paz", "Province": "Larecaja", "pob_2012": "3.731", "pob_2024": "3.502", "diferencia": -229.0, "incremento_porcentual": "-6,14" }, "geometry": { "type": "Point", "coordinates": [ -68.753380642735593, -15.81596101991714 ] } },
{ "type": "Feature", "properties": { "Municipality": "Concepción", "Department": "Santa Cruz", "Province": "Ñuflo De Chávez", "pob_2012": "18.800", "pob_2024": "30.109", "diferencia": 11.309, "incremento_porcentual": "60,15" }, "geometry": { "type": "Point", "coordinates": [ -62.112112836445363, -15.298494951586203 ] } },
{ "type": "Feature", "properties": { "Municipality": "Copacabana", "Department": "La Paz", "Province": "Manco Kapac", "pob_2012": "14.931", "pob_2024": "17.431", "diferencia": 2.5, "incremento_porcentual": "16,74" }, "geometry": { "type": "Point", "coordinates": [ -69.063441351003462, -16.13682283728949 ] } },
{ "type": "Feature", "properties": { "Municipality": "Coripata", "Department": "La Paz", "Province": "Nor Yungas", "pob_2012": "16.930", "pob_2024": "23.910", "diferencia": 6.98, "incremento_porcentual": "41,23" }, "geometry": { "type": "Point", "coordinates": [ -67.56734126316573, -16.209038259302204 ] } },
{ "type": "Feature", "properties": { "Municipality": "Coro Coro", "Department": "La Paz", "Province": "Pacajes", "pob_2012": "10.647", "pob_2024": "13.395", "diferencia": 2.748, "incremento_porcentual": "25,81" }, "geometry": { "type": "Point", "coordinates": [ -68.432311654240209, -17.173127241624989 ] } },
{ "type": "Feature", "properties": { "Municipality": "Coroico", "Department": "La Paz", "Province": "Nor Yungas", "pob_2012": "19.397", "pob_2024": "27.531", "diferencia": 8.134, "incremento_porcentual": "41,93" }, "geometry": { "type": "Point", "coordinates": [ -67.772605522449965, -16.162491248689324 ] } },
{ "type": "Feature", "properties": { "Municipality": "Corque", "Department": "Oruro", "Province": "Carangas", "pob_2012": "9.221", "pob_2024": "16.020", "diferencia": 6.799, "incremento_porcentual": "73,73" }, "geometry": { "type": "Point", "coordinates": [ -67.799452545410134, -18.464155727800687 ] } },
{ "type": "Feature", "properties": { "Municipality": "Cotagaita", "Department": "Potosí", "Province": "Nor Chichas", "pob_2012": "31.801", "pob_2024": "29.070", "diferencia": -2.731, "incremento_porcentual": "-8,59" }, "geometry": { "type": "Point", "coordinates": [ -65.769393250580833, -20.672899461706081 ] } },
{ "type": "Feature", "properties": { "Municipality": "Cotoca", "Department": "Santa Cruz", "Province": "Andrés Ibáñez", "pob_2012": "45.519", "pob_2024": "106.292", "diferencia": 60.773, "incremento_porcentual": "133,51" }, "geometry": { "type": "Point", "coordinates": [ -62.908254719420896, -17.75478378809543 ] } },
{ "type": "Feature", "properties": { "Municipality": "Cruz de Machacamarca", "Department": "Oruro", "Province": "Litoral", "pob_2012": "1.967", "pob_2024": "1.511", "diferencia": -456.0, "incremento_porcentual": "-23,18" }, "geometry": { "type": "Point", "coordinates": [ -68.374374947427995, -18.716830484134096 ] } },
{ "type": "Feature", "properties": { "Municipality": "Cuatro Cañadas", "Department": "Santa Cruz", "Province": "Ñuflo De Chávez", "pob_2012": "22.845", "pob_2024": "25.260", "diferencia": 2.415, "incremento_porcentual": "10,57" }, "geometry": { "type": "Point", "coordinates": [ -62.242711808342811, -17.237403361859101 ] } },
{ "type": "Feature", "properties": { "Municipality": "Cuevo", "Department": "Santa Cruz", "Province": "Cordillera", "pob_2012": "5.052", "pob_2024": "4.953", "diferencia": -99.0, "incremento_porcentual": "-1,96" }, "geometry": { "type": "Point", "coordinates": [ -63.539243141945427, -20.330234009590281 ] } },
{ "type": "Feature", "properties": { "Municipality": "Culpina", "Department": "Chuquisaca", "Province": "Sur Cinti", "pob_2012": "17.731", "pob_2024": "14.868", "diferencia": -2.863, "incremento_porcentual": "-16,15" }, "geometry": { "type": "Point", "coordinates": [ -64.572012282051872, -20.86979744172648 ] } },
{ "type": "Feature", "properties": { "Municipality": "Curahuara de Carangas", "Department": "Oruro", "Province": "Sajama", "pob_2012": "4.184", "pob_2024": "6.671", "diferencia": 2.487, "incremento_porcentual": "59,44" }, "geometry": { "type": "Point", "coordinates": [ -68.667170252856337, -17.988673513713234 ] } },
{ "type": "Feature", "properties": { "Municipality": "Curva", "Department": "La Paz", "Province": "Bautista Saavedra", "pob_2012": "3.285", "pob_2024": "6.423", "diferencia": 3.138, "incremento_porcentual": "95,53" }, "geometry": { "type": "Point", "coordinates": [ -68.96541906469254, -14.985150601438985 ] } },
{ "type": "Feature", "properties": { "Municipality": "Desaguadero", "Department": "La Paz", "Province": "Ingavi", "pob_2012": "6.987", "pob_2024": "7.867", "diferencia": 880.0, "incremento_porcentual": "12,59" }, "geometry": { "type": "Point", "coordinates": [ -68.978072419102745, -16.614257752786084 ] } },
{ "type": "Feature", "properties": { "Municipality": "El Alto", "Department": "La Paz", "Province": "Murillo", "pob_2012": "848.452", "pob_2024": "885.035", "diferencia": 36.583, "incremento_porcentual": "4,31" }, "geometry": { "type": "Point", "coordinates": [ -68.203411631961202, -16.468780530426997 ] } },
{ "type": "Feature", "properties": { "Municipality": "Carmen Rivero Torrez", "Department": "Santa Cruz", "Province": "Germán Busch", "pob_2012": "6.342", "pob_2024": "8.731", "diferencia": 2.389, "incremento_porcentual": "37,67" }, "geometry": { "type": "Point", "coordinates": [ -58.586369735614809, -18.455474995316521 ] } },
{ "type": "Feature", "properties": { "Municipality": "El Choro", "Department": "Oruro", "Province": "Cercado", "pob_2012": "8.725", "pob_2024": "10.393", "diferencia": 1.668, "incremento_porcentual": "19,12" }, "geometry": { "type": "Point", "coordinates": [ -67.174752082217367, -18.264341918003161 ] } },
{ "type": "Feature", "properties": { "Municipality": "El Puente", "Department": "Tarija", "Province": "Méndez", "pob_2012": "11.354", "pob_2024": "9.504", "diferencia": -1.85, "incremento_porcentual": "-16,29" }, "geometry": { "type": "Point", "coordinates": [ -65.049457594632557, -21.278541674102662 ] } },
{ "type": "Feature", "properties": { "Municipality": "El Puente", "Department": "Santa Cruz", "Province": "Guarayos", "pob_2012": "14.205", "pob_2024": "17.214", "diferencia": 3.009, "incremento_porcentual": "21,18" }, "geometry": { "type": "Point", "coordinates": [ -63.484943268901503, -16.147494212788601 ] } },
{ "type": "Feature", "properties": { "Municipality": "El Torno", "Department": "Santa Cruz", "Province": "Andrés Ibáñez", "pob_2012": "49.652", "pob_2024": "55.558", "diferencia": 5.906, "incremento_porcentual": "11,89" }, "geometry": { "type": "Point", "coordinates": [ -63.468822489213373, -18.048796291079093 ] } },
{ "type": "Feature", "properties": { "Municipality": "El Villar", "Department": "Chuquisaca", "Province": "Tomina", "pob_2012": "4.465", "pob_2024": "5.636", "diferencia": 1.171, "incremento_porcentual": "26,23" }, "geometry": { "type": "Point", "coordinates": [ -64.275294908842952, -19.691262165425996 ] } },
{ "type": "Feature", "properties": { "Municipality": "Entre Ríos", "Department": "Cochabamba", "Province": "Carrasco", "pob_2012": "31.550", "pob_2024": "45.520", "diferencia": 13.97, "incremento_porcentual": "44,28" }, "geometry": { "type": "Point", "coordinates": [ -64.546458242245777, -17.312261682301269 ] } },
{ "type": "Feature", "properties": { "Municipality": "Entre Ríos", "Department": "Tarija", "Province": "O'Connor", "pob_2012": "21.991", "pob_2024": "20.846", "diferencia": -1.145, "incremento_porcentual": "-5,21" }, "geometry": { "type": "Point", "coordinates": [ -64.065860976532321, -21.397993922073773 ] } },
{ "type": "Feature", "properties": { "Municipality": "Escara", "Department": "Oruro", "Province": "Litoral", "pob_2012": "4.223", "pob_2024": "4.194", "diferencia": -29.0, "incremento_porcentual": "-0,69" }, "geometry": { "type": "Point", "coordinates": [ -68.159340655139957, -18.694415718909557 ] } },
{ "type": "Feature", "properties": { "Municipality": "Escoma", "Department": "La Paz", "Province": "Camacho", "pob_2012": "7.186", "pob_2024": "8.810", "diferencia": 1.624, "incremento_porcentual": "22,60" }, "geometry": { "type": "Point", "coordinates": [ -69.149129964414769, -15.638170137749247 ] } },
{ "type": "Feature", "properties": { "Municipality": "Esmeralda", "Department": "Oruro", "Province": "Litoral", "pob_2012": "2.702", "pob_2024": "3.883", "diferencia": 1.181, "incremento_porcentual": "43,71" }, "geometry": { "type": "Point", "coordinates": [ -68.088150068108732, -18.945748331735192 ] } },
{ "type": "Feature", "properties": { "Municipality": "Eucaliptus", "Department": "Oruro", "Province": "Tomás Barrón", "pob_2012": "5.267", "pob_2024": "5.443", "diferencia": 176.0, "incremento_porcentual": "3,34" }, "geometry": { "type": "Point", "coordinates": [ -67.440794831780508, -17.634585525412106 ] } },
{ "type": "Feature", "properties": { "Municipality": "Exaltación", "Department": "Beni", "Province": "Yacuma", "pob_2012": "6.362", "pob_2024": "7.890", "diferencia": 1.528, "incremento_porcentual": "24,02" }, "geometry": { "type": "Point", "coordinates": [ -65.783193341006623, -12.803936417870728 ] } },
{ "type": "Feature", "properties": { "Municipality": "Fernández Alonso", "Department": "Santa Cruz", "Province": "Obispo Santistéban", "pob_2012": "15.117", "pob_2024": "14.625", "diferencia": -492.0, "incremento_porcentual": "-3,25" }, "geometry": { "type": "Point", "coordinates": [ -63.212289303851591, -16.888664802796882 ] } },
{ "type": "Feature", "properties": { "Municipality": "Filadelfia", "Department": "Pando", "Province": "Manuripi", "pob_2012": "5.756", "pob_2024": "7.941", "diferencia": 2.185, "incremento_porcentual": "37,96" }, "geometry": { "type": "Point", "coordinates": [ -68.532836415665258, -11.755987619367785 ] } },
{ "type": "Feature", "properties": { "Municipality": "Gral. Saavedra", "Department": "Santa Cruz", "Province": "Obispo Santistéban", "pob_2012": "14.209", "pob_2024": "16.043", "diferencia": 1.834, "incremento_porcentual": "12,91" }, "geometry": { "type": "Point", "coordinates": [ -63.176292303695277, -17.168183424698768 ] } },
{ "type": "Feature", "properties": { "Municipality": "Guanay", "Department": "La Paz", "Province": "Larecaja", "pob_2012": "14.788", "pob_2024": "16.373", "diferencia": 1.585, "incremento_porcentual": "10,72" }, "geometry": { "type": "Point", "coordinates": [ -68.042236551719157, -15.736199511408095 ] } },
{ "type": "Feature", "properties": { "Municipality": "Guayaramerín", "Department": "Beni", "Province": "Vaca Diez", "pob_2012": "41.814", "pob_2024": "40.759", "diferencia": -1.055, "incremento_porcentual": "-2,52" }, "geometry": { "type": "Point", "coordinates": [ -65.434978041613491, -11.30897122126666 ] } },
{ "type": "Feature", "properties": { "Municipality": "Gutiérrez", "Department": "Santa Cruz", "Province": "Cordillera", "pob_2012": "12.273", "pob_2024": "15.169", "diferencia": 2.896, "incremento_porcentual": "23,60" }, "geometry": { "type": "Point", "coordinates": [ -63.501713264758088, -19.395945203010136 ] } },
{ "type": "Feature", "properties": { "Municipality": "Huacaraje", "Department": "Beni", "Province": "Iténez", "pob_2012": "4.111", "pob_2024": "4.628", "diferencia": 517.0, "incremento_porcentual": "12,58" }, "geometry": { "type": "Point", "coordinates": [ -64.062854313172181, -13.824087311657438 ] } },
{ "type": "Feature", "properties": { "Municipality": "Huacareta", "Department": "Chuquisaca", "Province": "Hernando Siles", "pob_2012": "8.349", "pob_2024": "7.201", "diferencia": -1.148, "incremento_porcentual": "-13,75" }, "geometry": { "type": "Point", "coordinates": [ -64.009935458442527, -20.594568414435649 ] } },
{ "type": "Feature", "properties": { "Municipality": "Huacaya", "Department": "Chuquisaca", "Province": "Luis Calvo", "pob_2012": "2.541", "pob_2024": "2.546", "diferencia": 5.0, "incremento_porcentual": "0,20" }, "geometry": { "type": "Point", "coordinates": [ -63.594706602186221, -20.716629909335289 ] } },
{ "type": "Feature", "properties": { "Municipality": "Huachacalla", "Department": "Oruro", "Province": "Litoral", "pob_2012": "1.003", "pob_2024": "3.974", "diferencia": 2.971, "incremento_porcentual": "296,21" }, "geometry": { "type": "Point", "coordinates": [ -68.275109960278371, -18.794517197154661 ] } },
{ "type": "Feature", "properties": { "Municipality": "Huanuni", "Department": "Oruro", "Province": "Pantaleón Dalence", "pob_2012": "24.677", "pob_2024": "20.028", "diferencia": -4.649, "incremento_porcentual": "-18,84" }, "geometry": { "type": "Point", "coordinates": [ -66.76497950984205, -18.262715937584055 ] } },
{ "type": "Feature", "properties": { "Municipality": "Huarina", "Department": "La Paz", "Province": "Omasuyos", "pob_2012": "7.948", "pob_2024": "8.657", "diferencia": 709.0, "incremento_porcentual": "8,92" }, "geometry": { "type": "Point", "coordinates": [ -68.593355905006703, -16.165084549913118 ] } },
{ "type": "Feature", "properties": { "Municipality": "Huatajata", "Department": "La Paz", "Province": "Omasuyos", "pob_2012": "3.927", "pob_2024": "5.096", "diferencia": 1.169, "incremento_porcentual": "29,77" }, "geometry": { "type": "Point", "coordinates": [ -68.690797591214235, -16.197998384234275 ] } },
{ "type": "Feature", "properties": { "Municipality": "Huayllamarca", "Department": "Oruro", "Province": "Nor Carangas", "pob_2012": "5.502", "pob_2024": "5.980", "diferencia": 478.0, "incremento_porcentual": "8,69" }, "geometry": { "type": "Point", "coordinates": [ -67.820146259866846, -17.92751596831398 ] } },
{ "type": "Feature", "properties": { "Municipality": "Humanata", "Department": "La Paz", "Province": "Camacho", "pob_2012": "5.342", "pob_2024": "5.615", "diferencia": 273.0, "incremento_porcentual": "5,11" }, "geometry": { "type": "Point", "coordinates": [ -69.170828327036531, -15.414450045759926 ] } },
{ "type": "Feature", "properties": { "Municipality": "Ichoca", "Department": "La Paz", "Province": "Inquisivi", "pob_2012": "7.913", "pob_2024": "9.536", "diferencia": 1.623, "incremento_porcentual": "20,51" }, "geometry": { "type": "Point", "coordinates": [ -67.193466539108627, -17.184826200765109 ] } },
{ "type": "Feature", "properties": { "Municipality": "Incahuasi", "Department": "Chuquisaca", "Province": "Nor Cinti", "pob_2012": "13.056", "pob_2024": "16.311", "diferencia": 3.255, "incremento_porcentual": "24,93" }, "geometry": { "type": "Point", "coordinates": [ -64.572146651204008, -20.590673896471309 ] } },
{ "type": "Feature", "properties": { "Municipality": "Ingavi", "Department": "Pando", "Province": "Abuná", "pob_2012": "1.654", "pob_2024": "2.584", "diferencia": 930.0, "incremento_porcentual": "56,23" }, "geometry": { "type": "Point", "coordinates": [ -66.747379856381102, -10.504638097563204 ] } },
{ "type": "Feature", "properties": { "Municipality": "Inquisivi", "Department": "La Paz", "Province": "Inquisivi", "pob_2012": "14.717", "pob_2024": "18.764", "diferencia": 4.047, "incremento_porcentual": "27,50" }, "geometry": { "type": "Point", "coordinates": [ -66.977965536195327, -16.683251952196024 ] } },
{ "type": "Feature", "properties": { "Municipality": "Irupana", "Department": "La Paz", "Province": "Sud Yungas", "pob_2012": "17.276", "pob_2024": "23.076", "diferencia": 5.8, "incremento_porcentual": "33,57" }, "geometry": { "type": "Point", "coordinates": [ -67.510167691198319, -16.511109562147276 ] } },
{ "type": "Feature", "properties": { "Municipality": "Ixiamas", "Department": "La Paz", "Province": "Abel Iturralde", "pob_2012": "9.362", "pob_2024": "12.487", "diferencia": 3.125, "incremento_porcentual": "33,38" }, "geometry": { "type": "Point", "coordinates": [ -68.018739850483541, -13.090163184911994 ] } },
{ "type": "Feature", "properties": { "Municipality": "Jesús de Machaca", "Department": "La Paz", "Province": "Ingavi", "pob_2012": "15.039", "pob_2024": "16.957", "diferencia": 1.918, "incremento_porcentual": "12,75" }, "geometry": { "type": "Point", "coordinates": [ -68.73998556672953, -16.760733299348061 ] } },
{ "type": "Feature", "properties": { "Municipality": "San Andrés de Machaca", "Department": "La Paz", "Province": "Ingavi", "pob_2012": "6.145", "pob_2024": "7.832", "diferencia": 1.687, "incremento_porcentual": "27,45" }, "geometry": { "type": "Point", "coordinates": [ -69.04354346409113, -16.89973471464296 ] } },
{ "type": "Feature", "properties": { "Municipality": "La Asunta", "Department": "La Paz", "Province": "Sud Yungas", "pob_2012": "40.178", "pob_2024": "45.586", "diferencia": 5.408, "incremento_porcentual": "13,46" }, "geometry": { "type": "Point", "coordinates": [ -67.155885273275658, -16.108027210228919 ] } },
{ "type": "Feature", "properties": { "Municipality": "La Guardia", "Department": "Santa Cruz", "Province": "Andrés Ibáñez", "pob_2012": "89.284", "pob_2024": "147.622", "diferencia": 58.338, "incremento_porcentual": "65,34" }, "geometry": { "type": "Point", "coordinates": [ -63.234005541069585, -18.053692847282505 ] } },
{ "type": "Feature", "properties": { "Municipality": "La Rivera", "Department": "Oruro", "Province": "Mejillones", "pob_2012": "509", "pob_2024": "1.266", "diferencia": 757.0, "incremento_porcentual": "148,72" }, "geometry": { "type": "Point", "coordinates": [ -68.660144721263919, -19.062027430181569 ] } },
{ "type": "Feature", "properties": { "Municipality": "Lagunillas", "Department": "Santa Cruz", "Province": "Cordillera", "pob_2012": "5.366", "pob_2024": "5.910", "diferencia": 544.0, "incremento_porcentual": "10,14" }, "geometry": { "type": "Point", "coordinates": [ -63.64493662143704, -19.771552771136076 ] } },
{ "type": "Feature", "properties": { "Municipality": "Laja", "Department": "La Paz", "Province": "Los Andes", "pob_2012": "24.531", "pob_2024": "38.612", "diferencia": 14.081, "incremento_porcentual": "57,40" }, "geometry": { "type": "Point", "coordinates": [ -68.459651396619748, -16.58851625932628 ] } },
{ "type": "Feature", "properties": { "Municipality": "Las Carreras", "Department": "Chuquisaca", "Province": "Sur Cinti", "pob_2012": "4.088", "pob_2024": "5.007", "diferencia": 919.0, "incremento_porcentual": "22,48" }, "geometry": { "type": "Point", "coordinates": [ -65.320230817511131, -21.295641628425042 ] } },
{ "type": "Feature", "properties": { "Municipality": "Llallagua", "Department": "Potosí", "Province": "Rafael Bustillo", "pob_2012": "41.104", "pob_2024": "41.571", "diferencia": 467.0, "incremento_porcentual": "1,14" }, "geometry": { "type": "Point", "coordinates": [ -66.572193398713466, -18.363392653667301 ] } },
{ "type": "Feature", "properties": { "Municipality": "Llica", "Department": "Potosí", "Province": "Daniel Campos", "pob_2012": "4.150", "pob_2024": "4.150", "diferencia": 0.0, "incremento_porcentual": "0,00" }, "geometry": { "type": "Point", "coordinates": [ -68.412187656760764, -20.050281594435063 ] } },
{ "type": "Feature", "properties": { "Municipality": "Loreto", "Department": "Beni", "Province": "Marbán", "pob_2012": "3.828", "pob_2024": "4.263", "diferencia": 435.0, "incremento_porcentual": "11,36" }, "geometry": { "type": "Point", "coordinates": [ -64.920434232404801, -15.568135262423263 ] } },
{ "type": "Feature", "properties": { "Municipality": "Luribay", "Department": "La Paz", "Province": "Loayza", "pob_2012": "11.139", "pob_2024": "10.581", "diferencia": -558.0, "incremento_porcentual": "-5,01" }, "geometry": { "type": "Point", "coordinates": [ -67.634830374087926, -17.09378070893878 ] } },
{ "type": "Feature", "properties": { "Municipality": "Machacamarca", "Department": "Oruro", "Province": "Pantaleón Dalence", "pob_2012": "4.820", "pob_2024": "6.096", "diferencia": 1.276, "incremento_porcentual": "26,47" }, "geometry": { "type": "Point", "coordinates": [ -66.974433097267863, -18.153288779213035 ] } },
{ "type": "Feature", "properties": { "Municipality": "Macharetí", "Department": "Chuquisaca", "Province": "Luis Calvo", "pob_2012": "7.418", "pob_2024": "7.245", "diferencia": -173.0, "incremento_porcentual": "-2,33" }, "geometry": { "type": "Point", "coordinates": [ -62.878927951678577, -20.725391117234796 ] } },
{ "type": "Feature", "properties": { "Municipality": "Magdalena", "Department": "Beni", "Province": "Iténez", "pob_2012": "11.377", "pob_2024": "12.769", "diferencia": 1.392, "incremento_porcentual": "12,24" }, "geometry": { "type": "Point", "coordinates": [ -63.687511177229702, -12.994798819320232 ] } },
{ "type": "Feature", "properties": { "Municipality": "Mairana", "Department": "Santa Cruz", "Province": "Florida", "pob_2012": "10.177", "pob_2024": "12.732", "diferencia": 2.555, "incremento_porcentual": "25,11" }, "geometry": { "type": "Point", "coordinates": [ -64.006931764668067, -17.984606348464709 ] } },
{ "type": "Feature", "properties": { "Municipality": "Malla", "Department": "La Paz", "Province": "Loayza", "pob_2012": "5.180", "pob_2024": "4.866", "diferencia": -314.0, "incremento_porcentual": "-6,06" }, "geometry": { "type": "Point", "coordinates": [ -67.426764395748791, -17.011420000395287 ] } },
{ "type": "Feature", "properties": { "Municipality": "Mapiri", "Department": "La Paz", "Province": "Larecaja", "pob_2012": "13.891", "pob_2024": "21.805", "diferencia": 7.914, "incremento_porcentual": "56,97" }, "geometry": { "type": "Point", "coordinates": [ -68.257653796010274, -15.380074846547997 ] } },
{ "type": "Feature", "properties": { "Municipality": "Mecapaca", "Department": "La Paz", "Province": "Murillo", "pob_2012": "16.086", "pob_2024": "20.455", "diferencia": 4.369, "incremento_porcentual": "27,16" }, "geometry": { "type": "Point", "coordinates": [ -67.978705031041386, -16.718523952327825 ] } },
{ "type": "Feature", "properties": { "Municipality": "Mineros", "Department": "Santa Cruz", "Province": "Obispo Santistéban", "pob_2012": "23.251", "pob_2024": "22.731", "diferencia": -520.0, "incremento_porcentual": "-2,24" }, "geometry": { "type": "Point", "coordinates": [ -63.273040178316883, -17.052826513836536 ] } },
{ "type": "Feature", "properties": { "Municipality": "Mizque", "Department": "Cochabamba", "Province": "Mizque", "pob_2012": "26.900", "pob_2024": "19.846", "diferencia": -7.054, "incremento_porcentual": "-26,22" }, "geometry": { "type": "Point", "coordinates": [ -65.419780966587709, -18.05604776324504 ] } },
{ "type": "Feature", "properties": { "Municipality": "Mocomoco", "Department": "La Paz", "Province": "Camacho", "pob_2012": "15.665", "pob_2024": "17.653", "diferencia": 1.988, "incremento_porcentual": "12,69" }, "geometry": { "type": "Point", "coordinates": [ -69.035799320768405, -15.449978474199124 ] } },
{ "type": "Feature", "properties": { "Municipality": "Mojinete", "Department": "Potosí", "Province": "Sur Lipez", "pob_2012": "1.180", "pob_2024": "1.022", "diferencia": -158.0, "incremento_porcentual": "-13,39" }, "geometry": { "type": "Point", "coordinates": [ -66.351243454420981, -21.813971974870281 ] } },
{ "type": "Feature", "properties": { "Municipality": "Mojocoya", "Department": "Chuquisaca", "Province": "Zudáñez", "pob_2012": "8.068", "pob_2024": "8.971", "diferencia": 903.0, "incremento_porcentual": "11,19" }, "geometry": { "type": "Point", "coordinates": [ -64.644159389764198, -18.780316438147992 ] } },
{ "type": "Feature", "properties": { "Municipality": "Monteagudo", "Department": "Chuquisaca", "Province": "Hernando Siles", "pob_2012": "24.303", "pob_2024": "24.487", "diferencia": 184.0, "incremento_porcentual": "0,76" }, "geometry": { "type": "Point", "coordinates": [ -64.075082422921909, -20.014697172542739 ] } },
{ "type": "Feature", "properties": { "Municipality": "Montero", "Department": "Santa Cruz", "Province": "Obispo Santistéban", "pob_2012": "109.518", "pob_2024": "127.544", "diferencia": 18.026, "incremento_porcentual": "16,46" }, "geometry": { "type": "Point", "coordinates": [ -63.249923557632698, -17.33288688516437 ] } },
{ "type": "Feature", "properties": { "Municipality": "Morochata", "Department": "Cochabamba", "Province": "Ayopaya", "pob_2012": "12.797", "pob_2024": "14.598", "diferencia": 1.801, "incremento_porcentual": "14,07" }, "geometry": { "type": "Point", "coordinates": [ -66.570627675216969, -17.202875968165049 ] } },
{ "type": "Feature", "properties": { "Municipality": "Moro Moro", "Department": "Santa Cruz", "Province": "Vallegrande", "pob_2012": "2.767", "pob_2024": "2.811", "diferencia": 44.0, "incremento_porcentual": "1,59" }, "geometry": { "type": "Point", "coordinates": [ -64.344021604746814, -18.320572182918109 ] } },
{ "type": "Feature", "properties": { "Municipality": "Nazacara de Pacajes", "Department": "La Paz", "Province": "Pacajes", "pob_2012": "619", "pob_2024": "3.990", "diferencia": 3.371, "incremento_porcentual": "544,59" }, "geometry": { "type": "Point", "coordinates": [ -68.757234611478836, -16.92669880375249 ] } },
{ "type": "Feature", "properties": { "Municipality": "La Paz", "Department": "La Paz", "Province": "Murillo", "pob_2012": "766.468", "pob_2024": "755.732", "diferencia": -10.736, "incremento_porcentual": "-1,40" }, "geometry": { "type": "Point", "coordinates": [ -67.971743258211134, -16.167675591603274 ] } },
{ "type": "Feature", "properties": { "Municipality": "Nueva Esperanza", "Department": "Pando", "Province": "Federico Román", "pob_2012": "2.068", "pob_2024": "1.390", "diferencia": -678.0, "incremento_porcentual": "-32,79" }, "geometry": { "type": "Point", "coordinates": [ -65.537801864697713, -10.111324249051489 ] } },
{ "type": "Feature", "properties": { "Municipality": "Ocurí", "Department": "Potosí", "Province": "Chayanta", "pob_2012": "16.118", "pob_2024": "14.367", "diferencia": -1.751, "incremento_porcentual": "-10,86" }, "geometry": { "type": "Point", "coordinates": [ -65.768391945709041, -18.889861788166332 ] } },
{ "type": "Feature", "properties": { "Municipality": "Okinawa Uno", "Department": "Santa Cruz", "Province": "Warnes", "pob_2012": "12.482", "pob_2024": "10.508", "diferencia": -1.974, "incremento_porcentual": "-15,81" }, "geometry": { "type": "Point", "coordinates": [ -62.865500992988331, -17.322857873364843 ] } },
{ "type": "Feature", "properties": { "Municipality": "Omereque", "Department": "Cochabamba", "Province": "Campero", "pob_2012": "5.643", "pob_2024": "6.678", "diferencia": 1.035, "incremento_porcentual": "18,34" }, "geometry": { "type": "Point", "coordinates": [ -64.893375542037234, -18.070463666326088 ] } },
{ "type": "Feature", "properties": { "Municipality": "Oruro", "Department": "Oruro", "Province": "Cercado", "pob_2012": "264.943", "pob_2024": "297.497", "diferencia": 32.554, "incremento_porcentual": "12,29" }, "geometry": { "type": "Point", "coordinates": [ -67.091496606597744, -17.959970736942825 ] } },
{ "type": "Feature", "properties": { "Municipality": "Padcaya", "Department": "Tarija", "Province": "Arce", "pob_2012": "18.681", "pob_2024": "17.783", "diferencia": -898.0, "incremento_porcentual": "-4,81" }, "geometry": { "type": "Point", "coordinates": [ -64.529520459236863, -22.133867535588912 ] } },
{ "type": "Feature", "properties": { "Municipality": "Padilla", "Department": "Chuquisaca", "Province": "Tomina", "pob_2012": "10.383", "pob_2024": "7.542", "diferencia": -2.841, "incremento_porcentual": "-27,36" }, "geometry": { "type": "Point", "coordinates": [ -64.160760486252471, -19.374779826796939 ] } },
{ "type": "Feature", "properties": { "Municipality": "Pailón", "Department": "Santa Cruz", "Province": "Chiquitos", "pob_2012": "37.866", "pob_2024": "54.357", "diferencia": 16.491, "incremento_porcentual": "43,55" }, "geometry": { "type": "Point", "coordinates": [ -61.921353125165709, -17.757115300258182 ] } },
{ "type": "Feature", "properties": { "Municipality": "Palca", "Department": "La Paz", "Province": "Murillo", "pob_2012": "16.622", "pob_2024": "21.641", "diferencia": 5.019, "incremento_porcentual": "30,19" }, "geometry": { "type": "Point", "coordinates": [ -67.826135726237567, -16.666335359222519 ] } },
{ "type": "Feature", "properties": { "Municipality": "Palos Blancos", "Department": "La Paz", "Province": "Sud Yungas", "pob_2012": "24.731", "pob_2024": "26.995", "diferencia": 2.264, "incremento_porcentual": "9,15" }, "geometry": { "type": "Point", "coordinates": [ -67.231558844572248, -15.417684027586354 ] } },
{ "type": "Feature", "properties": { "Municipality": "Pampa Aullagas", "Department": "Oruro", "Province": "Ladislao Cabrera", "pob_2012": "2.973", "pob_2024": "3.180", "diferencia": 207.0, "incremento_porcentual": "6,96" }, "geometry": { "type": "Point", "coordinates": [ -67.165179852102185, -19.231458042621071 ] } },
{ "type": "Feature", "properties": { "Municipality": "Pampa Grande", "Department": "Santa Cruz", "Province": "Florida", "pob_2012": "9.198", "pob_2024": "9.650", "diferencia": 452.0, "incremento_porcentual": "4,91" }, "geometry": { "type": "Point", "coordinates": [ -64.153399637774683, -18.045497111387977 ] } },
{ "type": "Feature", "properties": { "Municipality": "Papel Pampa", "Department": "La Paz", "Province": "Gualberto Villarroel", "pob_2012": "7.003", "pob_2024": "6.222", "diferencia": -781.0, "incremento_porcentual": "-11,15" }, "geometry": { "type": "Point", "coordinates": [ -67.709619310078708, -17.697216452019497 ] } },
{ "type": "Feature", "properties": { "Municipality": "Soracachi", "Department": "Oruro", "Province": "Cercado", "pob_2012": "12.846", "pob_2024": "15.675", "diferencia": 2.829, "incremento_porcentual": "22,02" }, "geometry": { "type": "Point", "coordinates": [ -66.935963586245322, -17.857170087390028 ] } },
{ "type": "Feature", "properties": { "Municipality": "Pasorapa", "Department": "Cochabamba", "Province": "Campero", "pob_2012": "6.853", "pob_2024": "6.468", "diferencia": -385.0, "incremento_porcentual": "-5,62" }, "geometry": { "type": "Point", "coordinates": [ -64.600906420150721, -18.392293799101942 ] } },
{ "type": "Feature", "properties": { "Municipality": "Patacamaya", "Department": "La Paz", "Province": "Aroma", "pob_2012": "22.858", "pob_2024": "25.049", "diferencia": 2.191, "incremento_porcentual": "9,59" }, "geometry": { "type": "Point", "coordinates": [ -67.913346569515042, -17.216472891912368 ] } },
{ "type": "Feature", "properties": { "Municipality": "Pazña", "Department": "Oruro", "Province": "Poopó", "pob_2012": "5.955", "pob_2024": "4.220", "diferencia": -1.735, "incremento_porcentual": "-29,14" }, "geometry": { "type": "Point", "coordinates": [ -66.912979109691861, -18.613399607647285 ] } },
{ "type": "Feature", "properties": { "Municipality": "Pelechuco", "Department": "La Paz", "Province": "Franz Tamayo", "pob_2012": "6.780", "pob_2024": "8.993", "diferencia": 2.213, "incremento_porcentual": "32,64" }, "geometry": { "type": "Point", "coordinates": [ -69.090592862084094, -14.800645320822156 ] } },
{ "type": "Feature", "properties": { "Municipality": "Pocoata", "Department": "Potosí", "Province": "Chayanta", "pob_2012": "26.330", "pob_2024": "32.307", "diferencia": 5.977, "incremento_porcentual": "22,70" }, "geometry": { "type": "Point", "coordinates": [ -66.155703591404361, -18.639367657455324 ] } },
{ "type": "Feature", "properties": { "Municipality": "Pocona", "Department": "Cochabamba", "Province": "Carrasco", "pob_2012": "10.750", "pob_2024": "12.216", "diferencia": 1.466, "incremento_porcentual": "13,64" }, "geometry": { "type": "Point", "coordinates": [ -65.371824906722935, -17.681908485933462 ] } },
{ "type": "Feature", "properties": { "Municipality": "Pojo", "Department": "Cochabamba", "Province": "Carrasco", "pob_2012": "10.156", "pob_2024": "11.840", "diferencia": 1.684, "incremento_porcentual": "16,58" }, "geometry": { "type": "Point", "coordinates": [ -64.863565391164045, -17.600516854467962 ] } },
{ "type": "Feature", "properties": { "Municipality": "Poopó", "Department": "Oruro", "Province": "Poopó", "pob_2012": "7.587", "pob_2024": "9.152", "diferencia": 1.565, "incremento_porcentual": "20,63" }, "geometry": { "type": "Point", "coordinates": [ -66.94157428594913, -18.366687739074703 ] } },
{ "type": "Feature", "properties": { "Municipality": "Porco", "Department": "Potosí", "Province": "Antonio Quijarro", "pob_2012": "10.866", "pob_2024": "14.626", "diferencia": 3.76, "incremento_porcentual": "34,60" }, "geometry": { "type": "Point", "coordinates": [ -65.98413101096564, -19.807946810602136 ] } },
{ "type": "Feature", "properties": { "Municipality": "Poroma", "Department": "Chuquisaca", "Province": "Oropeza", "pob_2012": "17.377", "pob_2024": "13.640", "diferencia": -3.737, "incremento_porcentual": "-21,51" }, "geometry": { "type": "Point", "coordinates": [ -65.385155832361846, -18.621718194121865 ] } },
{ "type": "Feature", "properties": { "Municipality": "Porongo", "Department": "Santa Cruz", "Province": "Andrés Ibáñez", "pob_2012": "15.317", "pob_2024": "23.016", "diferencia": 7.699, "incremento_porcentual": "50,26" }, "geometry": { "type": "Point", "coordinates": [ -63.364857237929321, -17.750338570944358 ] } },
{ "type": "Feature", "properties": { "Municipality": "Portachuelo", "Department": "Santa Cruz", "Province": "Sara", "pob_2012": "17.885", "pob_2024": "20.709", "diferencia": 2.824, "incremento_porcentual": "15,79" }, "geometry": { "type": "Point", "coordinates": [ -63.448578020230904, -17.356892096148329 ] } },
{ "type": "Feature", "properties": { "Municipality": "Porvenir", "Department": "Pando", "Province": "Nicolás Suárez", "pob_2012": "7.948", "pob_2024": "8.970", "diferencia": 1.022, "incremento_porcentual": "12,86" }, "geometry": { "type": "Point", "coordinates": [ -68.793441175259318, -11.238267303402759 ] } },
{ "type": "Feature", "properties": { "Municipality": "Postrer Valle", "Department": "Santa Cruz", "Province": "Vallegrande", "pob_2012": "2.390", "pob_2024": "1.796", "diferencia": -594.0, "incremento_porcentual": "-24,85" }, "geometry": { "type": "Point", "coordinates": [ -63.763214454439449, -18.625005854425893 ] } },
{ "type": "Feature", "properties": { "Municipality": "Potosí", "Department": "Potosí", "Province": "Tomás Frías", "pob_2012": "191.302", "pob_2024": "218.336", "diferencia": 27.034, "incremento_porcentual": "14,13" }, "geometry": { "type": "Point", "coordinates": [ -65.722014745691354, -19.537430854379409 ] } },
{ "type": "Feature", "properties": { "Municipality": "Presto", "Department": "Chuquisaca", "Province": "Zudáñez", "pob_2012": "12.385", "pob_2024": "12.023", "diferencia": -362.0, "incremento_porcentual": "-2,92" }, "geometry": { "type": "Point", "coordinates": [ -64.893024400268885, -18.755604801433151 ] } },
{ "type": "Feature", "properties": { "Municipality": "Pucara", "Department": "Santa Cruz", "Province": "Vallegrande", "pob_2012": "2.076", "pob_2024": "2.009", "diferencia": -67.0, "incremento_porcentual": "-3,23" }, "geometry": { "type": "Point", "coordinates": [ -64.19099120138516, -18.762539962358289 ] } },
{ "type": "Feature", "properties": { "Municipality": "Pucarani", "Department": "La Paz", "Province": "Los Andes", "pob_2012": "28.465", "pob_2024": "49.701", "diferencia": 21.236, "incremento_porcentual": "74,60" }, "geometry": { "type": "Point", "coordinates": [ -68.416126515065898, -16.360445752451561 ] } },
{ "type": "Feature", "properties": { "Municipality": "Puerto Acosta", "Department": "La Paz", "Province": "Camacho", "pob_2012": "11.290", "pob_2024": "13.940", "diferencia": 2.65, "incremento_porcentual": "23,47" }, "geometry": { "type": "Point", "coordinates": [ -69.21557290750934, -15.554979045165076 ] } },
{ "type": "Feature", "properties": { "Municipality": "Puerto Gonzales Moreno", "Department": "Pando", "Province": "Madre de Dios", "pob_2012": "8.160", "pob_2024": "12.006", "diferencia": 3.846, "incremento_porcentual": "47,13" }, "geometry": { "type": "Point", "coordinates": [ -66.325107385161488, -11.167128734657082 ] } },
{ "type": "Feature", "properties": { "Municipality": "Pto. Carabuco", "Department": "La Paz", "Province": "Camacho", "pob_2012": "14.589", "pob_2024": "17.248", "diferencia": 2.659, "incremento_porcentual": "18,23" }, "geometry": { "type": "Point", "coordinates": [ -69.000926384399946, -15.712043582384013 ] } },
{ "type": "Feature", "properties": { "Municipality": "Guaqui", "Department": "La Paz", "Province": "Ingavi", "pob_2012": "7.278", "pob_2024": "8.599", "diferencia": 1.321, "incremento_porcentual": "18,15" }, "geometry": { "type": "Point", "coordinates": [ -68.820809718645663, -16.606754182400429 ] } },
{ "type": "Feature", "properties": { "Municipality": "Rurrenabaque", "Department": "Beni", "Province": "General José Ballivián", "pob_2012": "19.195", "pob_2024": "21.018", "diferencia": 1.823, "incremento_porcentual": "9,50" }, "geometry": { "type": "Point", "coordinates": [ -67.305753396025153, -14.688680762375441 ] } },
{ "type": "Feature", "properties": { "Municipality": "Puerto Pérez", "Department": "La Paz", "Province": "Los Andes", "pob_2012": "8.157", "pob_2024": "7.874", "diferencia": -283.0, "incremento_porcentual": "-3,47" }, "geometry": { "type": "Point", "coordinates": [ -68.647846617016313, -16.326662241053981 ] } },
{ "type": "Feature", "properties": { "Municipality": "Puerto Quijarro", "Department": "Santa Cruz", "Province": "Germán Busch", "pob_2012": "16.659", "pob_2024": "17.826", "diferencia": 1.167, "incremento_porcentual": "7,01" }, "geometry": { "type": "Point", "coordinates": [ -57.68495377833834, -18.426122704817352 ] } },
{ "type": "Feature", "properties": { "Municipality": "Puerto Rico", "Department": "Pando", "Province": "Manuripi", "pob_2012": "6.239", "pob_2024": "7.217", "diferencia": 978.0, "incremento_porcentual": "15,68" }, "geometry": { "type": "Point", "coordinates": [ -67.538056523145599, -11.327725804707292 ] } },
{ "type": "Feature", "properties": { "Municipality": "Puerto Siles", "Department": "Beni", "Province": "Mamoré", "pob_2012": "945", "pob_2024": "1.095", "diferencia": 150.0, "incremento_porcentual": "15,87" }, "geometry": { "type": "Point", "coordinates": [ -64.986308889188138, -12.424251018087034 ] } },
{ "type": "Feature", "properties": { "Municipality": "Puerto Suarez", "Department": "Santa Cruz", "Province": "Germán Busch", "pob_2012": "19.829", "pob_2024": "17.378", "diferencia": -2.451, "incremento_porcentual": "-12,36" }, "geometry": { "type": "Point", "coordinates": [ -58.256607466604457, -19.071384011651173 ] } },
{ "type": "Feature", "properties": { "Municipality": "Puerto Villarroel", "Department": "Cochabamba", "Province": "Carrasco", "pob_2012": "46.627", "pob_2024": "64.345", "diferencia": 17.718, "incremento_porcentual": "38,00" }, "geometry": { "type": "Point", "coordinates": [ -64.884527493049859, -17.032559987524465 ] } },
{ "type": "Feature", "properties": { "Municipality": "Puna", "Department": "Potosí", "Province": "José María Linares", "pob_2012": "21.917", "pob_2024": "16.350", "diferencia": -5.567, "incremento_porcentual": "-25,40" }, "geometry": { "type": "Point", "coordinates": [ -65.400073604310421, -19.876835308726431 ] } },
{ "type": "Feature", "properties": { "Municipality": "Punata", "Department": "Cochabamba", "Province": "Punata", "pob_2012": "28.887", "pob_2024": "34.813", "diferencia": 5.926, "incremento_porcentual": "20,51" }, "geometry": { "type": "Point", "coordinates": [ -65.831312428712224, -17.549257302630348 ] } },
{ "type": "Feature", "properties": { "Municipality": "Quiabaya", "Department": "La Paz", "Province": "Larecaja", "pob_2012": "2.684", "pob_2024": "4.221", "diferencia": 1.537, "incremento_porcentual": "57,27" }, "geometry": { "type": "Point", "coordinates": [ -68.714174971939499, -15.602455154368505 ] } },
{ "type": "Feature", "properties": { "Municipality": "Quillacollo", "Department": "Cochabamba", "Province": "Quillacollo", "pob_2012": "137.182", "pob_2024": "165.830", "diferencia": 28.648, "incremento_porcentual": "20,88" }, "geometry": { "type": "Point", "coordinates": [ -66.329179828971775, -17.211280230849596 ] } },
{ "type": "Feature", "properties": { "Municipality": "Quime", "Department": "La Paz", "Province": "Inquisivi", "pob_2012": "8.266", "pob_2024": "11.184", "diferencia": 2.918, "incremento_porcentual": "35,30" }, "geometry": { "type": "Point", "coordinates": [ -67.3408812533348, -16.848932352094721 ] } },
{ "type": "Feature", "properties": { "Municipality": "Quirusillas", "Department": "Santa Cruz", "Province": "Florida", "pob_2012": "2.995", "pob_2024": "3.095", "diferencia": 100.0, "incremento_porcentual": "3,34" }, "geometry": { "type": "Point", "coordinates": [ -63.937565942226655, -18.370617557819028 ] } },
{ "type": "Feature", "properties": { "Municipality": "Ravelo", "Department": "Potosí", "Province": "Chayanta", "pob_2012": "20.789", "pob_2024": "16.728", "diferencia": -4.061, "incremento_porcentual": "-19,53" }, "geometry": { "type": "Point", "coordinates": [ -65.563344811661494, -18.752689526106742 ] } },
{ "type": "Feature", "properties": { "Municipality": "Reyes", "Department": "Beni", "Province": "General José Ballivián", "pob_2012": "13.246", "pob_2024": "11.274", "diferencia": -1.972, "incremento_porcentual": "-14,89" }, "geometry": { "type": "Point", "coordinates": [ -67.058108188329371, -13.403012494918066 ] } },
{ "type": "Feature", "properties": { "Municipality": "Riberalta", "Department": "Beni", "Province": "Vaca Diez", "pob_2012": "89.022", "pob_2024": "107.141", "diferencia": 18.119, "incremento_porcentual": "20,35" }, "geometry": { "type": "Point", "coordinates": [ -66.100803120049946, -11.527869452787428 ] } },
{ "type": "Feature", "properties": { "Municipality": "Roboré", "Department": "Santa Cruz", "Province": "Chiquitos", "pob_2012": "15.641", "pob_2024": "18.701", "diferencia": 3.06, "incremento_porcentual": "19,56" }, "geometry": { "type": "Point", "coordinates": [ -59.611886504486328, -18.215392399747099 ] } },
{ "type": "Feature", "properties": { "Municipality": "Sabaya", "Department": "Oruro", "Province": "Sabaya", "pob_2012": "8.018", "pob_2024": "15.387", "diferencia": 7.369, "incremento_porcentual": "91,91" }, "geometry": { "type": "Point", "coordinates": [ -68.609924083035864, -18.907609638648921 ] } },
{ "type": "Feature", "properties": { "Municipality": "Sacaba", "Department": "Cochabamba", "Province": "Chapare", "pob_2012": "172.466", "pob_2024": "218.502", "diferencia": 46.036, "incremento_porcentual": "26,69" }, "geometry": { "type": "Point", "coordinates": [ -66.030372052275595, -17.331664560317567 ] } },
{ "type": "Feature", "properties": { "Municipality": "Sacabamba", "Department": "Cochabamba", "Province": "Esteban Arze", "pob_2012": "4.366", "pob_2024": "4.953", "diferencia": 587.0, "incremento_porcentual": "13,44" }, "geometry": { "type": "Point", "coordinates": [ -65.786225614305664, -17.776442235542646 ] } },
{ "type": "Feature", "properties": { "Municipality": "Villa deSacaca", "Department": "Potosí", "Province": "Alonso de Ibáñez", "pob_2012": "19.611", "pob_2024": "17.188", "diferencia": -2.423, "incremento_porcentual": "-12,36" }, "geometry": { "type": "Point", "coordinates": [ -66.343674726602444, -18.117618467440789 ] } },
{ "type": "Feature", "properties": { "Municipality": "Saipina", "Department": "Santa Cruz", "Province": "Manuel María Caballero", "pob_2012": "7.390", "pob_2024": "6.057", "diferencia": -1.333, "incremento_porcentual": "-18,04" }, "geometry": { "type": "Point", "coordinates": [ -64.639956165964023, -18.023631039888244 ] } },
{ "type": "Feature", "properties": { "Municipality": "Salinas de García Mendoza", "Department": "Oruro", "Province": "Ladislao Cabrera", "pob_2012": "11.878", "pob_2024": "15.906", "diferencia": 4.028, "incremento_porcentual": "33,91" }, "geometry": { "type": "Point", "coordinates": [ -67.614131055910491, -19.436634111722888 ] } },
{ "type": "Feature", "properties": { "Municipality": "Samaipata", "Department": "Santa Cruz", "Province": "Florida", "pob_2012": "10.472", "pob_2024": "11.814", "diferencia": 1.342, "incremento_porcentual": "12,82" }, "geometry": { "type": "Point", "coordinates": [ -63.750093445461602, -18.175265848612785 ] } },
{ "type": "Feature", "properties": { "Municipality": "San Agustín", "Department": "Potosí", "Province": "Enrique Baldivieso", "pob_2012": "1.684", "pob_2024": "2.119", "diferencia": 435.0, "incremento_porcentual": "25,83" }, "geometry": { "type": "Point", "coordinates": [ -67.413958640892915, -21.495295777708435 ] } },
{ "type": "Feature", "properties": { "Municipality": "San Andrés", "Department": "Beni", "Province": "Marbán", "pob_2012": "12.503", "pob_2024": "15.635", "diferencia": 3.132, "incremento_porcentual": "25,05" }, "geometry": { "type": "Point", "coordinates": [ -64.142282123943261, -15.37398151438839 ] } },
{ "type": "Feature", "properties": { "Municipality": "San Antonio de Esmoruco", "Department": "Potosí", "Province": "Sur Lipez", "pob_2012": "2.284", "pob_2024": "1.941", "diferencia": -343.0, "incremento_porcentual": "-15,02" }, "geometry": { "type": "Point", "coordinates": [ -66.634465985881945, -22.084160860099836 ] } },
{ "type": "Feature", "properties": { "Municipality": "San Antonio de Lomerío", "Department": "Santa Cruz", "Province": "Ñuflo De Chávez", "pob_2012": "6.481", "pob_2024": "6.346", "diferencia": -135.0, "incremento_porcentual": "-2,08" }, "geometry": { "type": "Point", "coordinates": [ -61.874164911538301, -16.806357852254575 ] } },
{ "type": "Feature", "properties": { "Municipality": "San Benito", "Department": "Cochabamba", "Province": "Punata", "pob_2012": "13.562", "pob_2024": "12.924", "diferencia": -638.0, "incremento_porcentual": "-4,70" }, "geometry": { "type": "Point", "coordinates": [ -65.878918964542152, -17.498183613879782 ] } },
{ "type": "Feature", "properties": { "Municipality": "San Borja", "Department": "Beni", "Province": "General José Ballivián", "pob_2012": "40.864", "pob_2024": "45.562", "diferencia": 4.698, "incremento_porcentual": "11,50" }, "geometry": { "type": "Point", "coordinates": [ -66.808467293138534, -15.00365074788033 ] } },
{ "type": "Feature", "properties": { "Municipality": "San Buenaventura", "Department": "La Paz", "Province": "Abel Iturralde", "pob_2012": "8.711", "pob_2024": "10.115", "diferencia": 1.404, "incremento_porcentual": "16,12" }, "geometry": { "type": "Point", "coordinates": [ -67.744945835124611, -14.259109869238753 ] } },
{ "type": "Feature", "properties": { "Municipality": "San Carlos", "Department": "Santa Cruz", "Province": "Ichilo", "pob_2012": "20.093", "pob_2024": "18.998", "diferencia": -1.095, "incremento_porcentual": "-5,45" }, "geometry": { "type": "Point", "coordinates": [ -63.753584215484693, -17.290725953786328 ] } },
{ "type": "Feature", "properties": { "Municipality": "San Ignacio", "Department": "Santa Cruz", "Province": "Velasco", "pob_2012": "52.362", "pob_2024": "67.610", "diferencia": 15.248, "incremento_porcentual": "29,12" }, "geometry": { "type": "Point", "coordinates": [ -60.994528731928654, -15.029620907704697 ] } },
{ "type": "Feature", "properties": { "Municipality": "San Ignacio", "Department": "Beni", "Province": "Moxos", "pob_2012": "21.114", "pob_2024": "21.578", "diferencia": 464.0, "incremento_porcentual": "2,20" }, "geometry": { "type": "Point", "coordinates": [ -65.686763314458929, -15.468566210154536 ] } },
{ "type": "Feature", "properties": { "Municipality": "San Javier", "Department": "Santa Cruz", "Province": "Ñuflo De Chávez", "pob_2012": "13.620", "pob_2024": "14.897", "diferencia": 1.277, "incremento_porcentual": "9,38" }, "geometry": { "type": "Point", "coordinates": [ -62.490914615734425, -16.233743101217811 ] } },
{ "type": "Feature", "properties": { "Municipality": "San Javier", "Department": "Beni", "Province": "Cercado", "pob_2012": "5.277", "pob_2024": "7.654", "diferencia": 2.377, "incremento_porcentual": "45,04" }, "geometry": { "type": "Point", "coordinates": [ -64.42544726040235, -14.422065647889076 ] } },
{ "type": "Feature", "properties": { "Municipality": "San Joaquín", "Department": "Beni", "Province": "Mamoré", "pob_2012": "6.917", "pob_2024": "6.851", "diferencia": -66.0, "incremento_porcentual": "-0,95" }, "geometry": { "type": "Point", "coordinates": [ -64.855725950410687, -12.960814317450756 ] } },
{ "type": "Feature", "properties": { "Municipality": "San Joséde Chiquitos", "Department": "Santa Cruz", "Province": "Chiquitos", "pob_2012": "28.922", "pob_2024": "40.961", "diferencia": 12.039, "incremento_porcentual": "41,63" }, "geometry": { "type": "Point", "coordinates": [ -60.424758589778598, -17.70223796486221 ] } },
{ "type": "Feature", "properties": { "Municipality": "San Juan de Yapacani", "Department": "Santa Cruz", "Province": "Ichilo", "pob_2012": "9.191", "pob_2024": "10.206", "diferencia": 1.015, "incremento_porcentual": "11,04" }, "geometry": { "type": "Point", "coordinates": [ -63.998737297791791, -16.861096270491664 ] } },
{ "type": "Feature", "properties": { "Municipality": "San Julián", "Department": "Santa Cruz", "Province": "Ñuflo De Chávez", "pob_2012": "47.416", "pob_2024": "44.635", "diferencia": -2.781, "incremento_porcentual": "-5,87" }, "geometry": { "type": "Point", "coordinates": [ -62.813640302323854, -16.792952928947315 ] } },
{ "type": "Feature", "properties": { "Municipality": "San Lorenzo", "Department": "Tarija", "Province": "Méndez", "pob_2012": "23.863", "pob_2024": "30.352", "diferencia": 6.489, "incremento_porcentual": "27,19" }, "geometry": { "type": "Point", "coordinates": [ -64.695279590634001, -21.23412695002003 ] } },
{ "type": "Feature", "properties": { "Municipality": "San Lorenzo", "Department": "Pando", "Province": "Madre de Dios", "pob_2012": "7.652", "pob_2024": "9.203", "diferencia": 1.551, "incremento_porcentual": "20,27" }, "geometry": { "type": "Point", "coordinates": [ -66.821160092613269, -11.596249937331947 ] } },
{ "type": "Feature", "properties": { "Municipality": "San Lucas", "Department": "Chuquisaca", "Province": "Nor Cinti", "pob_2012": "32.520", "pob_2024": "26.486", "diferencia": -6.034, "incremento_porcentual": "-18,55" }, "geometry": { "type": "Point", "coordinates": [ -64.899321419633253, -20.160733077742972 ] } },
{ "type": "Feature", "properties": { "Municipality": "San Matías", "Department": "Santa Cruz", "Province": "Angel Sandoval", "pob_2012": "14.470", "pob_2024": "15.336", "diferencia": 866.0, "incremento_porcentual": "5,98" }, "geometry": { "type": "Point", "coordinates": [ -58.823336037140891, -17.255049240617602 ] } },
{ "type": "Feature", "properties": { "Municipality": "San Miguel de Velasco", "Department": "Santa Cruz", "Province": "Velasco", "pob_2012": "11.327", "pob_2024": "15.177", "diferencia": 3.85, "incremento_porcentual": "33,99" }, "geometry": { "type": "Point", "coordinates": [ -61.272362639376645, -16.843004929487844 ] } },
{ "type": "Feature", "properties": { "Municipality": "San Pablo de Lipez", "Department": "Potosí", "Province": "Sur Lipez", "pob_2012": "3.371", "pob_2024": "3.136", "diferencia": -235.0, "incremento_porcentual": "-6,97" }, "geometry": { "type": "Point", "coordinates": [ -67.234174287064604, -22.177082327942216 ] } },
{ "type": "Feature", "properties": { "Municipality": "San Pedro", "Department": "Potosí", "Province": "Chárcas", "pob_2012": "30.012", "pob_2024": "27.961", "diferencia": -2.051, "incremento_porcentual": "-6,83" }, "geometry": { "type": "Point", "coordinates": [ -65.968276227210012, -18.340574794600322 ] } },
{ "type": "Feature", "properties": { "Municipality": "San Pedro", "Department": "Santa Cruz", "Province": "Obispo Santistéban", "pob_2012": "19.103", "pob_2024": "15.158", "diferencia": -3.945, "incremento_porcentual": "-20,65" }, "geometry": { "type": "Point", "coordinates": [ -63.611867567698525, -16.517456538535921 ] } },
{ "type": "Feature", "properties": { "Municipality": "San Pedro", "Department": "Pando", "Province": "Manuripi", "pob_2012": "2.991", "pob_2024": "3.239", "diferencia": 248.0, "incremento_porcentual": "8,29" }, "geometry": { "type": "Point", "coordinates": [ -66.58994527262908, -11.025449034962588 ] } },
{ "type": "Feature", "properties": { "Municipality": "San Pedro Cuarahuara", "Department": "La Paz", "Province": "Gualberto Villarroel", "pob_2012": "8.858", "pob_2024": "9.044", "diferencia": 186.0, "incremento_porcentual": "2,10" }, "geometry": { "type": "Point", "coordinates": [ -67.966682221680216, -17.633451548033584 ] } },
{ "type": "Feature", "properties": { "Municipality": "San Pedro de Quemes", "Department": "Potosí", "Province": "Nor Lipez", "pob_2012": "1.060", "pob_2024": "1.603", "diferencia": 543.0, "incremento_porcentual": "51,23" }, "geometry": { "type": "Point", "coordinates": [ -68.173805689980298, -21.000144251401217 ] } },
{ "type": "Feature", "properties": { "Municipality": "San Pedro de Tiquina", "Department": "La Paz", "Province": "Manco Kapac", "pob_2012": "6.052", "pob_2024": "9.097", "diferencia": 3.045, "incremento_porcentual": "50,31" }, "geometry": { "type": "Point", "coordinates": [ -68.865974638228693, -16.231275865592263 ] } },
{ "type": "Feature", "properties": { "Municipality": "San Rafael", "Department": "Santa Cruz", "Province": "Velasco", "pob_2012": "6.139", "pob_2024": "8.786", "diferencia": 2.647, "incremento_porcentual": "43,12" }, "geometry": { "type": "Point", "coordinates": [ -60.140939798270487, -16.81549585563976 ] } },
{ "type": "Feature", "properties": { "Municipality": "San Ramón", "Department": "Santa Cruz", "Province": "Ñuflo De Chávez", "pob_2012": "7.490", "pob_2024": "8.427", "diferencia": 937.0, "incremento_porcentual": "12,51" }, "geometry": { "type": "Point", "coordinates": [ -62.43449912489271, -16.577007362961425 ] } },
{ "type": "Feature", "properties": { "Municipality": "San Ramón", "Department": "Beni", "Province": "Mamoré", "pob_2012": "4.955", "pob_2024": "5.441", "diferencia": 486.0, "incremento_porcentual": "9,81" }, "geometry": { "type": "Point", "coordinates": [ -64.599843789923838, -13.50809599302565 ] } },
{ "type": "Feature", "properties": { "Municipality": "Santa Ana de Yacuma", "Department": "Beni", "Province": "Yacuma", "pob_2012": "18.439", "pob_2024": "18.102", "diferencia": -337.0, "incremento_porcentual": "-1,83" }, "geometry": { "type": "Point", "coordinates": [ -65.996460639192961, -14.350198690020232 ] } },
{ "type": "Feature", "properties": { "Municipality": "Santa Cruz de la Sierra", "Department": "Santa Cruz", "Province": "Andrés Ibáñez", "pob_2012": "1.454.539", "pob_2024": "1.606.671", "diferencia": 152.132, "incremento_porcentual": "10,46" }, "geometry": { "type": "Point", "coordinates": [ -62.998106768770782, -17.807075739446326 ] } },
{ "type": "Feature", "properties": { "Municipality": "Santa Rosa", "Department": "Santa Cruz", "Province": "Sara", "pob_2012": "19.217", "pob_2024": "17.984", "diferencia": -1.233, "incremento_porcentual": "-6,42" }, "geometry": { "type": "Point", "coordinates": [ -63.838681354771872, -16.659250482520978 ] } },
{ "type": "Feature", "properties": { "Municipality": "Santa Rosa", "Department": "Beni", "Province": "General José Ballivián", "pob_2012": "9.478", "pob_2024": "10.910", "diferencia": 1.432, "incremento_porcentual": "15,11" }, "geometry": { "type": "Point", "coordinates": [ -66.661485093624094, -13.318821717759429 ] } },
{ "type": "Feature", "properties": { "Municipality": "Santa Rosa", "Department": "Pando", "Province": "Abuná", "pob_2012": "2.395", "pob_2024": "2.855", "diferencia": 460.0, "incremento_porcentual": "19,21" }, "geometry": { "type": "Point", "coordinates": [ -67.278817263321599, -10.731635496806572 ] } },
{ "type": "Feature", "properties": { "Municipality": "Callapa", "Department": "La Paz", "Province": "Pacajes", "pob_2012": "7.289", "pob_2024": "7.965", "diferencia": 676.0, "incremento_porcentual": "9,27" }, "geometry": { "type": "Point", "coordinates": [ -68.347049500547826, -17.400900193635298 ] } },
{ "type": "Feature", "properties": { "Municipality": "Huari", "Department": "Oruro", "Province": "Sebastián Pagador", "pob_2012": "13.897", "pob_2024": "13.439", "diferencia": -458.0, "incremento_porcentual": "-3,30" }, "geometry": { "type": "Point", "coordinates": [ -66.563685894606721, -19.164324628893461 ] } },
{ "type": "Feature", "properties": { "Municipality": "Santiago de Huata", "Department": "La Paz", "Province": "Omasuyos", "pob_2012": "8.562", "pob_2024": "9.258", "diferencia": 696.0, "incremento_porcentual": "8,13" }, "geometry": { "type": "Point", "coordinates": [ -68.835109300687279, -16.08625659308192 ] } },
{ "type": "Feature", "properties": { "Municipality": "Santiago de Machaca", "Department": "La Paz", "Province": "General José Manuel Pando", "pob_2012": "4.593", "pob_2024": "6.766", "diferencia": 2.173, "incremento_porcentual": "47,31" }, "geometry": { "type": "Point", "coordinates": [ -69.270592770545463, -17.189523928410111 ] } },
{ "type": "Feature", "properties": { "Municipality": "Santivañez", "Department": "Cochabamba", "Province": "Capinota", "pob_2012": "6.527", "pob_2024": "7.868", "diferencia": 1.341, "incremento_porcentual": "20,55" }, "geometry": { "type": "Point", "coordinates": [ -66.218048932865614, -17.573590611740499 ] } },
{ "type": "Feature", "properties": { "Municipality": "Santos Mercado", "Department": "Pando", "Province": "Federico Román", "pob_2012": "2.165", "pob_2024": "2.184", "diferencia": 19.0, "incremento_porcentual": "0,88" }, "geometry": { "type": "Point", "coordinates": [ -66.13641849110077, -10.153388901117914 ] } },
{ "type": "Feature", "properties": { "Municipality": "Quillacas", "Department": "Oruro", "Province": "Abaroa", "pob_2012": "4.051", "pob_2024": "5.105", "diferencia": 1.054, "incremento_porcentual": "26,02" }, "geometry": { "type": "Point", "coordinates": [ -66.813467602129705, -19.31933278773737 ] } },
{ "type": "Feature", "properties": { "Municipality": "Sapahaqui", "Department": "La Paz", "Province": "Loayza", "pob_2012": "12.484", "pob_2024": "16.420", "diferencia": 3.936, "incremento_porcentual": "31,53" }, "geometry": { "type": "Point", "coordinates": [ -67.836019704250319, -16.953522467758582 ] } },
{ "type": "Feature", "properties": { "Municipality": "Sena", "Department": "Pando", "Province": "Madre de Dios", "pob_2012": "8.258", "pob_2024": "10.264", "diferencia": 2.006, "incremento_porcentual": "24,29" }, "geometry": { "type": "Point", "coordinates": [ -67.359220669452341, -11.855493376305583 ] } },
{ "type": "Feature", "properties": { "Municipality": "Shinahota", "Department": "Cochabamba", "Province": "Tiraque", "pob_2012": "20.841", "pob_2024": "27.067", "diferencia": 6.226, "incremento_porcentual": "29,87" }, "geometry": { "type": "Point", "coordinates": [ -65.318495566999459, -17.059323341489971 ] } },
{ "type": "Feature", "properties": { "Municipality": "Sica Sica", "Department": "La Paz", "Province": "Aroma", "pob_2012": "31.312", "pob_2024": "33.546", "diferencia": 2.234, "incremento_porcentual": "7,13" }, "geometry": { "type": "Point", "coordinates": [ -67.619158817319942, -17.374471881669223 ] } },
{ "type": "Feature", "properties": { "Municipality": "Sicaya", "Department": "Cochabamba", "Province": "Capinota", "pob_2012": "3.740", "pob_2024": "3.949", "diferencia": 209.0, "incremento_porcentual": "5,59" }, "geometry": { "type": "Point", "coordinates": [ -66.341644142796298, -17.790989407970201 ] } },
{ "type": "Feature", "properties": { "Municipality": "Sipe Sipe", "Department": "Cochabamba", "Province": "Quillacollo", "pob_2012": "41.571", "pob_2024": "55.601", "diferencia": 14.03, "incremento_porcentual": "33,75" }, "geometry": { "type": "Point", "coordinates": [ -66.391636993300509, -17.502957913332644 ] } },
{ "type": "Feature", "properties": { "Municipality": "Sopachuy", "Department": "Chuquisaca", "Province": "Tomina", "pob_2012": "7.312", "pob_2024": "6.886", "diferencia": -426.0, "incremento_porcentual": "-5,83" }, "geometry": { "type": "Point", "coordinates": [ -64.535207991680664, -19.462208740654368 ] } },
{ "type": "Feature", "properties": { "Municipality": "Sorata", "Department": "La Paz", "Province": "Larecaja", "pob_2012": "23.512", "pob_2024": "30.020", "diferencia": 6.508, "incremento_porcentual": "27,68" }, "geometry": { "type": "Point", "coordinates": [ -68.494127044161132, -15.719340870114904 ] } },
{ "type": "Feature", "properties": { "Municipality": "Sucre", "Department": "Chuquisaca", "Province": "Oropeza", "pob_2012": "261.201", "pob_2024": "296.125", "diferencia": 34.924, "incremento_porcentual": "13,37" }, "geometry": { "type": "Point", "coordinates": [ -65.250473819132054, -18.937712153593804 ] } },
{ "type": "Feature", "properties": { "Municipality": "Tacachi", "Department": "Cochabamba", "Province": "Punata", "pob_2012": "1.303", "pob_2024": "1.276", "diferencia": -27.0, "incremento_porcentual": "-2,07" }, "geometry": { "type": "Point", "coordinates": [ -65.788322225850067, -17.637946559674873 ] } },
{ "type": "Feature", "properties": { "Municipality": "Tacacoma", "Department": "La Paz", "Province": "Larecaja", "pob_2012": "8.182", "pob_2024": "9.705", "diferencia": 1.523, "incremento_porcentual": "18,61" }, "geometry": { "type": "Point", "coordinates": [ -68.523013716695687, -15.392451726164264 ] } },
{ "type": "Feature", "properties": { "Municipality": "Tacobamba", "Department": "Potosí", "Province": "Cornelio Saavedra", "pob_2012": "11.835", "pob_2024": "14.208", "diferencia": 2.373, "incremento_porcentual": "20,05" }, "geometry": { "type": "Point", "coordinates": [ -65.554039704261342, -19.213248079479332 ] } },
{ "type": "Feature", "properties": { "Municipality": "Tacopaya", "Department": "Cochabamba", "Province": "Arque", "pob_2012": "10.253", "pob_2024": "10.549", "diferencia": 296.0, "incremento_porcentual": "2,89" }, "geometry": { "type": "Point", "coordinates": [ -66.625857824781463, -17.826521007529855 ] } },
{ "type": "Feature", "properties": { "Municipality": "Tahua", "Department": "Potosí", "Province": "Daniel Campos", "pob_2012": "1.700", "pob_2024": "1.561", "diferencia": -139.0, "incremento_porcentual": "-8,18" }, "geometry": { "type": "Point", "coordinates": [ -67.943904122125062, -20.287705105563511 ] } },
{ "type": "Feature", "properties": { "Municipality": "Tapacarí", "Department": "Cochabamba", "Province": "Tapacarí", "pob_2012": "24.625", "pob_2024": "24.534", "diferencia": -91.0, "incremento_porcentual": "-0,37" }, "geometry": { "type": "Point", "coordinates": [ -66.651496695021663, -17.570832527077236 ] } },
{ "type": "Feature", "properties": { "Municipality": "Tarabuco", "Department": "Chuquisaca", "Province": "Yamparáez", "pob_2012": "16.944", "pob_2024": "13.251", "diferencia": -3.693, "incremento_porcentual": "-21,80" }, "geometry": { "type": "Point", "coordinates": [ -64.90982682845997, -19.121497751917396 ] } },
{ "type": "Feature", "properties": { "Municipality": "Taraco", "Department": "La Paz", "Province": "Ingavi", "pob_2012": "6.603", "pob_2024": "7.511", "diferencia": 908.0, "incremento_porcentual": "13,75" }, "geometry": { "type": "Point", "coordinates": [ -68.853561538932979, -16.462596197512475 ] } },
{ "type": "Feature", "properties": { "Municipality": "Tarata", "Department": "Cochabamba", "Province": "Esteban Arze", "pob_2012": "8.242", "pob_2024": "11.235", "diferencia": 2.993, "incremento_porcentual": "36,31" }, "geometry": { "type": "Point", "coordinates": [ -66.065533135590883, -17.691787639536241 ] } },
{ "type": "Feature", "properties": { "Municipality": "Tarija", "Department": "Tarija", "Province": "Cercado", "pob_2012": "205.375", "pob_2024": "238.942", "diferencia": 33.567, "incremento_porcentual": "16,34" }, "geometry": { "type": "Point", "coordinates": [ -64.594002811502477, -21.559542800883467 ] } },
{ "type": "Feature", "properties": { "Municipality": "Tarvita", "Department": "Chuquisaca", "Province": "Azurduy", "pob_2012": "14.261", "pob_2024": "16.470", "diferencia": 2.209, "incremento_porcentual": "15,49" }, "geometry": { "type": "Point", "coordinates": [ -64.561808747077436, -19.772148975096833 ] } },
{ "type": "Feature", "properties": { "Municipality": "Teoponte", "Department": "La Paz", "Province": "Larecaja", "pob_2012": "9.349", "pob_2024": "13.469", "diferencia": 4.12, "incremento_porcentual": "44,07" }, "geometry": { "type": "Point", "coordinates": [ -67.687235549835236, -15.407381375994619 ] } },
{ "type": "Feature", "properties": { "Municipality": "Tiahuanacu", "Department": "La Paz", "Province": "Ingavi", "pob_2012": "12.189", "pob_2024": "13.568", "diferencia": 1.379, "incremento_porcentual": "11,31" }, "geometry": { "type": "Point", "coordinates": [ -68.695768572168348, -16.558706854397521 ] } },
{ "type": "Feature", "properties": { "Municipality": "Tinguipaya", "Department": "Potosí", "Province": "Tomás Frías", "pob_2012": "27.200", "pob_2024": "28.829", "diferencia": 1.629, "incremento_porcentual": "5,99" }, "geometry": { "type": "Point", "coordinates": [ -65.904098782080155, -19.169992018369427 ] } },
{ "type": "Feature", "properties": { "Municipality": "Tipuani", "Department": "La Paz", "Province": "Larecaja", "pob_2012": "9.985", "pob_2024": "7.640", "diferencia": -2.345, "incremento_porcentual": "-23,49" }, "geometry": { "type": "Point", "coordinates": [ -68.055999464895123, -15.584436338637364 ] } },
{ "type": "Feature", "properties": { "Municipality": "Tiquipaya", "Department": "Cochabamba", "Province": "Quillacollo", "pob_2012": "53.904", "pob_2024": "61.600", "diferencia": 7.696, "incremento_porcentual": "14,28" }, "geometry": { "type": "Point", "coordinates": [ -66.202056454393414, -17.188606690530086 ] } },
{ "type": "Feature", "properties": { "Municipality": "Tiraque", "Department": "Cochabamba", "Province": "Tiraque", "pob_2012": "21.231", "pob_2024": "18.190", "diferencia": -3.041, "incremento_porcentual": "-14,32" }, "geometry": { "type": "Point", "coordinates": [ -65.517287098432774, -17.336668172700424 ] } },
{ "type": "Feature", "properties": { "Municipality": "Tito Yupanqui", "Department": "La Paz", "Province": "Manco Kapac", "pob_2012": "6.261", "pob_2024": "7.512", "diferencia": 1.251, "incremento_porcentual": "19,98" }, "geometry": { "type": "Point", "coordinates": [ -68.959232486855981, -16.180157928062858 ] } },
{ "type": "Feature", "properties": { "Municipality": "Toko", "Department": "Cochabamba", "Province": "Germán Jordán", "pob_2012": "7.057", "pob_2024": "7.208", "diferencia": 151.0, "incremento_porcentual": "2,14" }, "geometry": { "type": "Point", "coordinates": [ -65.920439194503544, -17.64747557361563 ] } },
{ "type": "Feature", "properties": { "Municipality": "Todos Santos", "Department": "Oruro", "Province": "Mejillones", "pob_2012": "727", "pob_2024": "1.132", "diferencia": 405.0, "incremento_porcentual": "55,71" }, "geometry": { "type": "Point", "coordinates": [ -68.758639257324973, -19.028165911308601 ] } },
{ "type": "Feature", "properties": { "Municipality": "Tolata", "Department": "Cochabamba", "Province": "Germán Jordán", "pob_2012": "5.542", "pob_2024": "7.372", "diferencia": 1.83, "incremento_porcentual": "33,02" }, "geometry": { "type": "Point", "coordinates": [ -66.002745312244969, -17.526645868683772 ] } },
{ "type": "Feature", "properties": { "Municipality": "Toledo", "Department": "Oruro", "Province": "Saucarí", "pob_2012": "10.149", "pob_2024": "12.115", "diferencia": 1.966, "incremento_porcentual": "19,37" }, "geometry": { "type": "Point", "coordinates": [ -67.413200852664374, -18.275636478815265 ] } },
{ "type": "Feature", "properties": { "Municipality": "Tomave", "Department": "Potosí", "Province": "Antonio Quijarro", "pob_2012": "14.789", "pob_2024": "7.811", "diferencia": -6.978, "incremento_porcentual": "-47,18" }, "geometry": { "type": "Point", "coordinates": [ -66.394297713262063, -20.101599080461245 ] } },
{ "type": "Feature", "properties": { "Municipality": "Tomina", "Department": "Chuquisaca", "Province": "Tomina", "pob_2012": "8.494", "pob_2024": "8.341", "diferencia": -153.0, "incremento_porcentual": "-1,80" }, "geometry": { "type": "Point", "coordinates": [ -64.494992035859298, -19.160810300870473 ] } },
{ "type": "Feature", "properties": { "Municipality": "Toro Toro", "Department": "Potosí", "Province": "Chárcas", "pob_2012": "10.870", "pob_2024": "10.719", "diferencia": -151.0, "incremento_porcentual": "-1,39" }, "geometry": { "type": "Point", "coordinates": [ -65.70087461713112, -18.2095714001332 ] } },
{ "type": "Feature", "properties": { "Municipality": "Totora", "Department": "Cochabamba", "Province": "Carrasco", "pob_2012": "14.665", "pob_2024": "14.766", "diferencia": 101.0, "incremento_porcentual": "0,69" }, "geometry": { "type": "Point", "coordinates": [ -65.144331826955266, -17.586307326220442 ] } },
{ "type": "Feature", "properties": { "Municipality": "Totora", "Department": "Oruro", "Province": "San Pedro de Totora", "pob_2012": "5.531", "pob_2024": "6.570", "diferencia": 1.039, "incremento_porcentual": "18,79" }, "geometry": { "type": "Point", "coordinates": [ -68.179964444802593, -17.854863833085808 ] } },
{ "type": "Feature", "properties": { "Municipality": "Trigal", "Department": "Santa Cruz", "Province": "Vallegrande", "pob_2012": "2.135", "pob_2024": "2.367", "diferencia": 232.0, "incremento_porcentual": "10,87" }, "geometry": { "type": "Point", "coordinates": [ -64.132595491815465, -18.287096321949782 ] } },
{ "type": "Feature", "properties": { "Municipality": "Trinidad", "Department": "Beni", "Province": "Cercado", "pob_2012": "106.596", "pob_2024": "124.357", "diferencia": 17.761, "incremento_porcentual": "16,66" }, "geometry": { "type": "Point", "coordinates": [ -64.657381362175826, -14.834977541216796 ] } },
{ "type": "Feature", "properties": { "Municipality": "Tupiza", "Department": "Potosí", "Province": "Sur Chichas", "pob_2012": "44.814", "pob_2024": "45.531", "diferencia": 717.0, "incremento_porcentual": "1,60" }, "geometry": { "type": "Point", "coordinates": [ -65.796862000217345, -21.491138360547481 ] } },
{ "type": "Feature", "properties": { "Municipality": "Turco", "Department": "Oruro", "Province": "Sajama", "pob_2012": "5.207", "pob_2024": "5.277", "diferencia": 70.0, "incremento_porcentual": "1,34" }, "geometry": { "type": "Point", "coordinates": [ -68.530232975852257, -18.337055244673486 ] } },
{ "type": "Feature", "properties": { "Municipality": "Umala", "Department": "La Paz", "Province": "Aroma", "pob_2012": "8.903", "pob_2024": "9.021", "diferencia": 118.0, "incremento_porcentual": "1,33" }, "geometry": { "type": "Point", "coordinates": [ -67.997170899071733, -17.403975466594485 ] } },
{ "type": "Feature", "properties": { "Municipality": "Uncía", "Department": "Potosí", "Province": "Rafael Bustillo", "pob_2012": "22.020", "pob_2024": "22.673", "diferencia": 653.0, "incremento_porcentual": "2,97" }, "geometry": { "type": "Point", "coordinates": [ -66.531389279973652, -18.588421592361573 ] } },
{ "type": "Feature", "properties": { "Municipality": "Uriondo", "Department": "Tarija", "Province": "Avilés", "pob_2012": "14.781", "pob_2024": "15.954", "diferencia": 1.173, "incremento_porcentual": "7,94" }, "geometry": { "type": "Point", "coordinates": [ -64.70844126577127, -21.743022803333293 ] } },
{ "type": "Feature", "properties": { "Municipality": "Urmiri", "Department": "Potosí", "Province": "Tomás Frías", "pob_2012": "2.759", "pob_2024": "3.162", "diferencia": 403.0, "incremento_porcentual": "14,61" }, "geometry": { "type": "Point", "coordinates": [ -66.180715799491992, -19.472775943639473 ] } },
{ "type": "Feature", "properties": { "Municipality": "Urubichá", "Department": "Santa Cruz", "Province": "Guarayos", "pob_2012": "7.026", "pob_2024": "6.528", "diferencia": -498.0, "incremento_porcentual": "-7,09" }, "geometry": { "type": "Point", "coordinates": [ -63.018571549717329, -14.952714888873228 ] } },
{ "type": "Feature", "properties": { "Municipality": "Uyuni", "Department": "Potosí", "Province": "Antonio Quijarro", "pob_2012": "29.672", "pob_2024": "35.118", "diferencia": 5.446, "incremento_porcentual": "18,35" }, "geometry": { "type": "Point", "coordinates": [ -66.789380606434619, -20.065268471325613 ] } },
{ "type": "Feature", "properties": { "Municipality": "Vacas", "Department": "Cochabamba", "Province": "Arani", "pob_2012": "8.940", "pob_2024": "8.425", "diferencia": -515.0, "incremento_porcentual": "-5,76" }, "geometry": { "type": "Point", "coordinates": [ -65.582587654195777, -17.58905233103436 ] } },
{ "type": "Feature", "properties": { "Municipality": "Vallegrande", "Department": "Santa Cruz", "Province": "Vallegrande", "pob_2012": "17.208", "pob_2024": "17.172", "diferencia": -36.0, "incremento_porcentual": "-0,21" }, "geometry": { "type": "Point", "coordinates": [ -63.940369844890597, -18.783767001252837 ] } },
{ "type": "Feature", "properties": { "Municipality": "Viacha", "Department": "La Paz", "Province": "Ingavi", "pob_2012": "80.724", "pob_2024": "113.453", "diferencia": 32.729, "incremento_porcentual": "40,54" }, "geometry": { "type": "Point", "coordinates": [ -68.310640167615645, -16.733845244100728 ] } },
{ "type": "Feature", "properties": { "Municipality": "Vila Vila", "Department": "Cochabamba", "Province": "Mizque", "pob_2012": "5.459", "pob_2024": "5.220", "diferencia": -239.0, "incremento_porcentual": "-4,38" }, "geometry": { "type": "Point", "coordinates": [ -65.671427503496986, -17.978257907411791 ] } },
{ "type": "Feature", "properties": { "Municipality": "Villa Abecia", "Department": "Chuquisaca", "Province": "Sur Cinti", "pob_2012": "3.514", "pob_2024": "5.371", "diferencia": 1.857, "incremento_porcentual": "52,85" }, "geometry": { "type": "Point", "coordinates": [ -65.287729204708754, -20.986315295187069 ] } },
{ "type": "Feature", "properties": { "Municipality": "Ancoraimes", "Department": "La Paz", "Province": "Omasuyos", "pob_2012": "13.136", "pob_2024": "16.900", "diferencia": 3.764, "incremento_porcentual": "28,65" }, "geometry": { "type": "Point", "coordinates": [ -68.868724562048499, -15.854249460039776 ] } },
{ "type": "Feature", "properties": { "Municipality": "Villa Charcas", "Department": "Chuquisaca", "Province": "Nor Cinti", "pob_2012": "16.150", "pob_2024": "13.924", "diferencia": -2.226, "incremento_porcentual": "-13,78" }, "geometry": { "type": "Point", "coordinates": [ -64.820734338701442, -20.572139052008605 ] } },
{ "type": "Feature", "properties": { "Municipality": "Cuchumuela", "Department": "Cochabamba", "Province": "Punata", "pob_2012": "2.768", "pob_2024": "3.818", "diferencia": 1.05, "incremento_porcentual": "37,93" }, "geometry": { "type": "Point", "coordinates": [ -65.771090957399394, -17.689919265132129 ] } },
{ "type": "Feature", "properties": { "Municipality": "Villa Libertad Licoma", "Department": "La Paz", "Province": "Inquisivi", "pob_2012": "5.488", "pob_2024": "7.791", "diferencia": 2.303, "incremento_porcentual": "41,96" }, "geometry": { "type": "Point", "coordinates": [ -67.203166625207203, -16.811891630535193 ] } },
{ "type": "Feature", "properties": { "Municipality": "Villamontes", "Department": "Tarija", "Province": "Gran Chaco", "pob_2012": "39.867", "pob_2024": "46.010", "diferencia": 6.143, "incremento_porcentual": "15,41" }, "geometry": { "type": "Point", "coordinates": [ -62.91175134833685, -21.400949608262152 ] } },