{
"type": "FeatureCollection",
"name": "datos_censos_final",
"crs": { "type": "name", "properties": { "name": "urn:ogc:def:crs:OGC:1.3:CRS84" } },
"features": [
{ "type": "Feature", "properties": { "Municipality": "Acasio", "Department": "Potosí", "Province": "General Bilbao", "pob_2012": 6161.0, "pob_2024": 4434.0, "diferencia": "-1727", "incremento_porcentual": -28.03, "proy_2022": 5618.0, "dif_proy": "-1184" }, "geometry": { "type": "Point", "coordinates": [ -66.056184396696253, -18.026332084972463 ] } },
{ "type": "Feature", "properties": { "Municipality": "Achacachi", "Department": "La Paz", "Province": "Omasuyos", "pob_2012": 46058.0, "pob_2024": 47064.0, "diferencia": "1006", "incremento_porcentual": 2.18, "proy_2022": 35964.0, "dif_proy": "11100" }, "geometry": { "type": "Point", "coordinates": [ -68.684774820573409, -16.041847445406113 ] } },
{ "type": "Feature", "properties": { "Municipality": "Achocalla", "Department": "La Paz", "Province": "Murillo", "pob_2012": 22179.0, "pob_2024": 46068.0, "diferencia": "23889", "incremento_porcentual": 107.71, "proy_2022": 19995.0, "dif_proy": "26073" }, "geometry": { "type": "Point", "coordinates": [ -68.167002677570309, -16.570628072959799 ] } },
{ "type": "Feature", "properties": { "Municipality": "Aiquile", "Department": "Cochabamba", "Province": "Campero", "pob_2012": 23267.0, "pob_2024": 23000.0, "diferencia": "-267", "incremento_porcentual": -1.15, "proy_2022": 21190.0, "dif_proy": "1810" }, "geometry": { "type": "Point", "coordinates": [ -65.181490880204606, -18.205352642423929 ] } },
{ "type": "Feature", "properties": { "Municipality": "Alalay", "Department": "Cochabamba", "Province": "Mizque", "pob_2012": 3447.0, "pob_2024": 3461.0, "diferencia": "014", "incremento_porcentual": 0.41, "proy_2022": 2499.0, "dif_proy": "962" }, "geometry": { "type": "Point", "coordinates": [ -65.691863972371294, -17.710087071526523 ] } },
{ "type": "Feature", "properties": { "Municipality": "Villa Alcalá", "Department": "Chuquisaca", "Province": "Tomina", "pob_2012": 4902.0, "pob_2024": 3752.0, "diferencia": "-1150", "incremento_porcentual": -23.46, "proy_2022": 2632.0, "dif_proy": "1120" }, "geometry": { "type": "Point", "coordinates": [ -64.390040910616449, -19.366181595153563 ] } },
{ "type": "Feature", "properties": { "Municipality": "Alto Beni", "Department": "La Paz", "Province": "Caranavi", "pob_2012": 11194.0, "pob_2024": 10499.0, "diferencia": "-695", "incremento_porcentual": -6.21, "proy_2022": 8837.0, "dif_proy": "1662" }, "geometry": { "type": "Point", "coordinates": [ -67.389582090797603, -15.605529039684289 ] } },
{ "type": "Feature", "properties": { "Municipality": "Santiago de Andamarca", "Department": "Oruro", "Province": "Sur Carangas", "pob_2012": 5216.0, "pob_2024": 6300.0, "diferencia": "1084", "incremento_porcentual": 20.78, "proy_2022": 4277.0, "dif_proy": "2023" }, "geometry": { "type": "Point", "coordinates": [ -67.503913246888331, -18.775861846080733 ] } },
{ "type": "Feature", "properties": { "Municipality": "Antequera", "Department": "Oruro", "Province": "Poopó", "pob_2012": 3264.0, "pob_2024": 3614.0, "diferencia": "350", "incremento_porcentual": 10.72, "proy_2022": 3295.0, "dif_proy": "319" }, "geometry": { "type": "Point", "coordinates": [ -66.775474947735475, -18.524940527675557 ] } },
{ "type": "Feature", "properties": { "Municipality": "Anzaldo", "Department": "Cochabamba", "Province": "Esteban Arze", "pob_2012": 7192.0, "pob_2024": 7322.0, "diferencia": "130", "incremento_porcentual": 1.81, "proy_2022": 5182.0, "dif_proy": "2140" }, "geometry": { "type": "Point", "coordinates": [ -65.931584072946308, -17.784109610122723 ] } },
{ "type": "Feature", "properties": { "Municipality": "Apolo", "Department": "La Paz", "Province": "Franz Tamayo", "pob_2012": 20308.0, "pob_2024": 19047.0, "diferencia": "-1261", "incremento_porcentual": -6.21, "proy_2022": 17423.0, "dif_proy": "1624" }, "geometry": { "type": "Point", "coordinates": [ -68.410440225217684, -14.718021072071799 ] } },
{ "type": "Feature", "properties": { "Municipality": "Arampampa", "Department": "Potosí", "Province": "General Bilbao", "pob_2012": 4170.0, "pob_2024": 3623.0, "diferencia": "-547", "incremento_porcentual": -13.12, "proy_2022": 4746.0, "dif_proy": "-1123" }, "geometry": { "type": "Point", "coordinates": [ -66.082799807564783, -17.880574771128057 ] } },
{ "type": "Feature", "properties": { "Municipality": "Arani", "Department": "Cochabamba", "Province": "Arani", "pob_2012": 9504.0, "pob_2024": 11411.0, "diferencia": "1907", "incremento_porcentual": 20.07, "proy_2022": 9294.0, "dif_proy": "2117" }, "geometry": { "type": "Point", "coordinates": [ -65.767323363924135, -17.571534000379792 ] } },
{ "type": "Feature", "properties": { "Municipality": "Arbieto", "Department": "Cochabamba", "Province": "Esteban Arze", "pob_2012": 17445.0, "pob_2024": 30454.0, "diferencia": "13009", "incremento_porcentual": 74.57, "proy_2022": 17914.0, "dif_proy": "12540" }, "geometry": { "type": "Point", "coordinates": [ -66.0150260088773, -17.583493727824983 ] } },
{ "type": "Feature", "properties": { "Municipality": "Arque", "Department": "Cochabamba", "Province": "Arque", "pob_2012": 10597.0, "pob_2024": 10635.0, "diferencia": "038", "incremento_porcentual": 0.36, "proy_2022": 9987.0, "dif_proy": "648" }, "geometry": { "type": "Point", "coordinates": [ -66.403680809893856, -17.822071062346975 ] } },
{ "type": "Feature", "properties": { "Municipality": "Ascensión de Guarayos", "Department": "Santa Cruz", "Province": "Guarayos", "pob_2012": 27070.0, "pob_2024": 34002.0, "diferencia": "6932", "incremento_porcentual": 25.61, "proy_2022": 35743.0, "dif_proy": "-1741" }, "geometry": { "type": "Point", "coordinates": [ -63.188223351913329, -15.897885224321106 ] } },
{ "type": "Feature", "properties": { "Municipality": "Atocha", "Department": "Potosí", "Province": "Sur Chichas", "pob_2012": 11234.0, "pob_2024": 9364.0, "diferencia": "-1870", "incremento_porcentual": -16.65, "proy_2022": 12849.0, "dif_proy": "-3485" }, "geometry": { "type": "Point", "coordinates": [ -66.221609826757103, -20.933685146682155 ] } },
{ "type": "Feature", "properties": { "Municipality": "Aucapata", "Department": "La Paz", "Province": "Muñecas", "pob_2012": 5495.0, "pob_2024": 6720.0, "diferencia": "1225", "incremento_porcentual": 22.29, "proy_2022": 6737.0, "dif_proy": "-017" }, "geometry": { "type": "Point", "coordinates": [ -68.713979386087161, -15.49367564387479 ] } },
{ "type": "Feature", "properties": { "Municipality": "Ayata", "Department": "La Paz", "Province": "Muñecas", "pob_2012": 8410.0, "pob_2024": 8957.0, "diferencia": "547", "incremento_porcentual": 6.5, "proy_2022": 8455.0, "dif_proy": "502" }, "geometry": { "type": "Point", "coordinates": [ -68.83431567629178, -15.459480283655513 ] } },
{ "type": "Feature", "properties": { "Municipality": "Ayo Ayo", "Department": "La Paz", "Province": "Aroma", "pob_2012": 7798.0, "pob_2024": 11251.0, "diferencia": "3453", "incremento_porcentual": 44.28, "proy_2022": 8359.0, "dif_proy": "2892" }, "geometry": { "type": "Point", "coordinates": [ -68.001333706082292, -17.092843041896696 ] } },
{ "type": "Feature", "properties": { "Municipality": "Independencia", "Department": "Cochabamba", "Province": "Ayopaya", "pob_2012": 23658.0, "pob_2024": 21717.0, "diferencia": "-1941", "incremento_porcentual": -8.2, "proy_2022": 22493.0, "dif_proy": "-776" }, "geometry": { "type": "Point", "coordinates": [ -66.805273011644857, -17.143875555243682 ] } },
{ "type": "Feature", "properties": { "Municipality": "Azurduy", "Department": "Chuquisaca", "Province": "Azurduy", "pob_2012": 10652.0, "pob_2024": 7861.0, "diferencia": "-2791", "incremento_porcentual": -26.2, "proy_2022": 11166.0, "dif_proy": "-3305" }, "geometry": { "type": "Point", "coordinates": [ -64.412853925601183, -20.109152761855512 ] } },
{ "type": "Feature", "properties": { "Municipality": "Batallas", "Department": "La Paz", "Province": "Los Andes", "pob_2012": 17426.0, "pob_2024": 20503.0, "diferencia": "3077", "incremento_porcentual": 17.66, "proy_2022": 14892.0, "dif_proy": "5611" }, "geometry": { "type": "Point", "coordinates": [ -68.433610667571259, -16.164311787508225 ] } },
{ "type": "Feature", "properties": { "Municipality": "Baures", "Department": "Beni", "Province": "Iténez", "pob_2012": 5965.0, "pob_2024": 6564.0, "diferencia": "599", "incremento_porcentual": 10.04, "proy_2022": 5365.0, "dif_proy": "1199" }, "geometry": { "type": "Point", "coordinates": [ -62.875484678593963, -13.62513942529687 ] } },
{ "type": "Feature", "properties": { "Municipality": "Belén de Andamarca", "Department": "Oruro", "Province": "Sur Carangas", "pob_2012": 2016.0, "pob_2024": 2996.0, "diferencia": "980", "incremento_porcentual": 48.61, "proy_2022": 1501.0, "dif_proy": "1495" }, "geometry": { "type": "Point", "coordinates": [ -67.749802264221614, -18.892051378037415 ] } },
{ "type": "Feature", "properties": { "Municipality": "Bella Flor", "Department": "Pando", "Province": "Nicolás Suárez", "pob_2012": 3909.0, "pob_2024": 3632.0, "diferencia": "-277", "incremento_porcentual": -7.09, "proy_2022": 4195.0, "dif_proy": "-563" }, "geometry": { "type": "Point", "coordinates": [ -67.931509045600592, -10.932069375934407 ] } },
{ "type": "Feature", "properties": { "Municipality": "Bermejo", "Department": "Tarija", "Province": "Arce", "pob_2012": 34505.0, "pob_2024": 36967.0, "diferencia": "2462", "incremento_porcentual": 7.14, "proy_2022": 44062.0, "dif_proy": "-7095" }, "geometry": { "type": "Point", "coordinates": [ -64.331642195719837, -22.728434747331804 ] } },
{ "type": "Feature", "properties": { "Municipality": "Betanzos", "Department": "Potosí", "Province": "Cornelio Saavedra", "pob_2012": 33922.0, "pob_2024": 31772.0, "diferencia": "-2150", "incremento_porcentual": -6.34, "proy_2022": 32736.0, "dif_proy": "-964" }, "geometry": { "type": "Point", "coordinates": [ -65.447777388428037, -19.551669346666831 ] } },
{ "type": "Feature", "properties": { "Municipality": "Bolívar", "Department": "Cochabamba", "Province": "Bolivar", "pob_2012": 7279.0, "pob_2024": 8197.0, "diferencia": "918", "incremento_porcentual": 12.61, "proy_2022": 6422.0, "dif_proy": "1775" }, "geometry": { "type": "Point", "coordinates": [ -66.539535816349726, -17.966713978712086 ] } },
{ "type": "Feature", "properties": { "Municipality": "Bolpebra", "Department": "Pando", "Province": "Nicolás Suárez", "pob_2012": 2173.0, "pob_2024": 2390.0, "diferencia": "217", "incremento_porcentual": 9.99, "proy_2022": 2574.0, "dif_proy": "-184" }, "geometry": { "type": "Point", "coordinates": [ -69.224767055806495, -11.170657546154146 ] } },
{ "type": "Feature", "properties": { "Municipality": "Boyuibe", "Department": "Santa Cruz", "Province": "Cordillera", "pob_2012": 5087.0, "pob_2024": 5603.0, "diferencia": "516", "incremento_porcentual": 10.14, "proy_2022": 5324.0, "dif_proy": "279" }, "geometry": { "type": "Point", "coordinates": [ -63.283514033239939, -20.432143968700604 ] } },
{ "type": "Feature", "properties": { "Municipality": "Buena Vista", "Department": "Santa Cruz", "Province": "Ichilo", "pob_2012": 12879.0, "pob_2024": 13586.0, "diferencia": "707", "incremento_porcentual": 5.49, "proy_2022": 14929.0, "dif_proy": "-1343" }, "geometry": { "type": "Point", "coordinates": [ -63.661976347911533, -17.459336174803138 ] } },
{ "type": "Feature", "properties": { "Municipality": "Cabezas", "Department": "Santa Cruz", "Province": "Cordillera", "pob_2012": 26434.0, "pob_2024": 31160.0, "diferencia": "4726", "incremento_porcentual": 17.88, "proy_2022": 29843.0, "dif_proy": "1317" }, "geometry": { "type": "Point", "coordinates": [ -63.318556270003619, -18.786264724442436 ] } },
{ "type": "Feature", "properties": { "Municipality": "Cairoma", "Department": "La Paz", "Province": "Loayza", "pob_2012": 11355.0, "pob_2024": 13657.0, "diferencia": "2302", "incremento_porcentual": 20.27, "proy_2022": 9680.0, "dif_proy": "3977" }, "geometry": { "type": "Point", "coordinates": [ -67.538933471602107, -16.903841039713583 ] } },
{ "type": "Feature", "properties": { "Municipality": "Caiza D", "Department": "Potosí", "Province": "José María Linares", "pob_2012": 12067.0, "pob_2024": 12891.0, "diferencia": "824", "incremento_porcentual": 6.83, "proy_2022": 10570.0, "dif_proy": "2321" }, "geometry": { "type": "Point", "coordinates": [ -65.653633049920217, -20.011275719880199 ] } },
{ "type": "Feature", "properties": { "Municipality": "Cajuata", "Department": "La Paz", "Province": "Inquisivi", "pob_2012": 10458.0, "pob_2024": 15485.0, "diferencia": "5027", "incremento_porcentual": 48.07, "proy_2022": 10606.0, "dif_proy": "4879" }, "geometry": { "type": "Point", "coordinates": [ -67.170759893218616, -16.700821070982631 ] } },
{ "type": "Feature", "properties": { "Municipality": "Calacoto", "Department": "La Paz", "Province": "Pacajes", "pob_2012": 9879.0, "pob_2024": 12057.0, "diferencia": "2178", "incremento_porcentual": 22.05, "proy_2022": 7904.0, "dif_proy": "4153" }, "geometry": { "type": "Point", "coordinates": [ -68.63629648001799, -17.282636562575007 ] } },
{ "type": "Feature", "properties": { "Municipality": "Calamarca", "Department": "La Paz", "Province": "Aroma", "pob_2012": 12413.0, "pob_2024": 15279.0, "diferencia": "2866", "incremento_porcentual": 23.09, "proy_2022": 10836.0, "dif_proy": "4443" }, "geometry": { "type": "Point", "coordinates": [ -68.112472666651357, -16.890443149284781 ] } },
{ "type": "Feature", "properties": { "Municipality": "Camargo", "Department": "Chuquisaca", "Province": "Nor Cinti", "pob_2012": 15644.0, "pob_2024": 14712.0, "diferencia": "-932", "incremento_porcentual": -5.96, "proy_2022": 15522.0, "dif_proy": "-810" }, "geometry": { "type": "Point", "coordinates": [ -65.156022655587591, -20.60255412340198 ] } },
{ "type": "Feature", "properties": { "Municipality": "Camiri", "Department": "Santa Cruz", "Province": "Cordillera", "pob_2012": 33838.0, "pob_2024": 32656.0, "diferencia": "-1182", "incremento_porcentual": -3.49, "proy_2022": 42613.0, "dif_proy": "-9957" }, "geometry": { "type": "Point", "coordinates": [ -63.487869847955473, -20.034761245932135 ] } },
{ "type": "Feature", "properties": { "Municipality": "Capinota", "Department": "Cochabamba", "Province": "Capinota", "pob_2012": 19477.0, "pob_2024": 19291.0, "diferencia": "-186", "incremento_porcentual": -0.95, "proy_2022": 21252.0, "dif_proy": "-1961" }, "geometry": { "type": "Point", "coordinates": [ -66.260664391216821, -17.71498435239522 ] } },
{ "type": "Feature", "properties": { "Municipality": "Caquiaviri", "Department": "La Paz", "Province": "Pacajes", "pob_2012": 14687.0, "pob_2024": 15464.0, "diferencia": "777", "incremento_porcentual": 5.29, "proy_2022": 10772.0, "dif_proy": "4692" }, "geometry": { "type": "Point", "coordinates": [ -68.610058878533124, -17.021548966432228 ] } },
{ "type": "Feature", "properties": { "Municipality": "Caracollo", "Department": "Oruro", "Province": "Cercado", "pob_2012": 23115.0, "pob_2024": 23068.0, "diferencia": "-047", "incremento_porcentual": -0.2, "proy_2022": 21177.0, "dif_proy": "1891" }, "geometry": { "type": "Point", "coordinates": [ -67.209476851224821, -17.644122858326963 ] } },
{ "type": "Feature", "properties": { "Municipality": "Caranavi", "Department": "La Paz", "Province": "Caranavi", "pob_2012": 50330.0, "pob_2024": 59034.0, "diferencia": "8704", "incremento_porcentual": 17.29, "proy_2022": 45500.0, "dif_proy": "13534" }, "geometry": { "type": "Point", "coordinates": [ -67.563667849884609, -15.835900825730739 ] } },
{ "type": "Feature", "properties": { "Municipality": "Carangas", "Department": "Oruro", "Province": "Mejillones", "pob_2012": 840.0, "pob_2024": 1130.0, "diferencia": "290", "incremento_porcentual": 34.52, "proy_2022": 557.0, "dif_proy": "573" }, "geometry": { "type": "Point", "coordinates": [ -68.625252987175656, -18.939081789565854 ] } },
{ "type": "Feature", "properties": { "Municipality": "Caraparí", "Department": "Tarija", "Province": "Gran Chaco", "pob_2012": 15366.0, "pob_2024": 15650.0, "diferencia": "284", "incremento_porcentual": 1.85, "proy_2022": 16532.0, "dif_proy": "-882" }, "geometry": { "type": "Point", "coordinates": [ -63.742314621470001, -21.827857788561197 ] } },
{ "type": "Feature", "properties": { "Municipality": "Caripuyo", "Department": "Potosí", "Province": "Alonso de Ibáñez", "pob_2012": 8704.0, "pob_2024": 8427.0, "diferencia": "-277", "incremento_porcentual": -3.18, "proy_2022": 9128.0, "dif_proy": "-701" }, "geometry": { "type": "Point", "coordinates": [ -66.473028552750094, -18.233501591556156 ] } },
{ "type": "Feature", "properties": { "Municipality": "Catacora", "Department": "La Paz", "Province": "General José Manuel Pando", "pob_2012": 2881.0, "pob_2024": 5326.0, "diferencia": "2445", "incremento_porcentual": 84.87, "proy_2022": 1734.0, "dif_proy": "3592" }, "geometry": { "type": "Point", "coordinates": [ -69.486380502995473, -17.161631729248359 ] } },
{ "type": "Feature", "properties": { "Municipality": "Chacarilla", "Department": "La Paz", "Province": "Gualberto Villarroel", "pob_2012": 2004.0, "pob_2024": 2031.0, "diferencia": "027", "incremento_porcentual": 1.35, "proy_2022": 2218.0, "dif_proy": "-187" }, "geometry": { "type": "Point", "coordinates": [ -68.204645539060479, -17.582466079091652 ] } },
{ "type": "Feature", "properties": { "Municipality": "Challapata", "Department": "Oruro", "Province": "Abaroa", "pob_2012": 28304.0, "pob_2024": 35339.0, "diferencia": "7035", "incremento_porcentual": 24.86, "proy_2022": 33015.0, "dif_proy": "2324" }, "geometry": { "type": "Point", "coordinates": [ -66.773477216999979, -18.898811750040849 ] } },
{ "type": "Feature", "properties": { "Municipality": "Chaquí", "Department": "Potosí", "Province": "Cornelio Saavedra", "pob_2012": 9910.0, "pob_2024": 9262.0, "diferencia": "-648", "incremento_porcentual": -6.54, "proy_2022": 8773.0, "dif_proy": "489" }, "geometry": { "type": "Point", "coordinates": [ -65.561903342198008, -19.587553873190519 ] } },
{ "type": "Feature", "properties": { "Municipality": "Charagua", "Department": "Santa Cruz", "Province": "Cordillera", "pob_2012": 32186.0, "pob_2024": 39262.0, "diferencia": "7076", "incremento_porcentual": 21.98, "proy_2022": 36810.0, "dif_proy": "2452" }, "geometry": { "type": "Point", "coordinates": [ -63.176735940800761, -19.780216397300482 ] } },
{ "type": "Feature", "properties": { "Municipality": "Charaña", "Department": "La Paz", "Province": "Pacajes", "pob_2012": 3246.0, "pob_2024": 4124.0, "diferencia": "878", "incremento_porcentual": 27.05, "proy_2022": 4735.0, "dif_proy": "-611" }, "geometry": { "type": "Point", "coordinates": [ -69.43908274552841, -17.593013562173173 ] } },
{ "type": "Feature", "properties": { "Municipality": "Charazani", "Department": "La Paz", "Province": "Bautista Saavedra", "pob_2012": 13023.0, "pob_2024": 15854.0, "diferencia": "2831", "incremento_porcentual": 21.74, "proy_2022": 9267.0, "dif_proy": "6587" }, "geometry": { "type": "Point", "coordinates": [ -68.998046945228353, -15.177662860678003 ] } },
{ "type": "Feature", "properties": { "Municipality": "Chayanta", "Department": "Potosí", "Province": "Rafael Bustillo", "pob_2012": 16129.0, "pob_2024": 16008.0, "diferencia": "-121", "incremento_porcentual": -0.75, "proy_2022": 16280.0, "dif_proy": "-272" }, "geometry": { "type": "Point", "coordinates": [ -66.443790478853685, -18.460039701651421 ] } },
{ "type": "Feature", "properties": { "Municipality": "Chimoré", "Department": "Cochabamba", "Province": "Carrasco", "pob_2012": 21736.0, "pob_2024": 27374.0, "diferencia": "5638", "incremento_porcentual": 25.94, "proy_2022": 25616.0, "dif_proy": "1758" }, "geometry": { "type": "Point", "coordinates": [ -65.141369202247162, -16.978963195688245 ] } },
{ "type": "Feature", "properties": { "Municipality": "Chipaya", "Department": "Oruro", "Province": "Sabaya", "pob_2012": 2003.0, "pob_2024": 2366.0, "diferencia": "363", "incremento_porcentual": 18.12, "proy_2022": 1818.0, "dif_proy": "548" }, "geometry": { "type": "Point", "coordinates": [ -68.087924226839377, -19.040652581788528 ] } },
{ "type": "Feature", "properties": { "Municipality": "Choque Cota", "Department": "Oruro", "Province": "Carangas", "pob_2012": 1850.0, "pob_2024": 2980.0, "diferencia": "1130", "incremento_porcentual": 61.08, "proy_2022": 980.0, "dif_proy": "2000" }, "geometry": { "type": "Point", "coordinates": [ -67.89080912076561, -18.099472371774624 ] } },
{ "type": "Feature", "properties": { "Municipality": "Chua Cocani", "Department": "La Paz", "Province": "Omasuyos", "pob_2012": 5003.0, "pob_2024": 7183.0, "diferencia": "2180", "incremento_porcentual": 43.57, "proy_2022": 5503.0, "dif_proy": "1680" }, "geometry": { "type": "Point", "coordinates": [ -68.743952610566794, -16.189675648321369 ] } },
{ "type": "Feature", "properties": { "Municipality": "Chulumani", "Department": "La Paz", "Province": "Sud Yungas", "pob_2012": 17823.0, "pob_2024": 18278.0, "diferencia": "455", "incremento_porcentual": 2.55, "proy_2022": 17501.0, "dif_proy": "777" }, "geometry": { "type": "Point", "coordinates": [ -67.525110339044303, -16.410795382282785 ] } },
{ "type": "Feature", "properties": { "Municipality": "Chuma", "Department": "La Paz", "Province": "Muñecas", "pob_2012": 11473.0, "pob_2024": 17671.0, "diferencia": "6198", "incremento_porcentual": 54.02, "proy_2022": 9888.0, "dif_proy": "7783" }, "geometry": { "type": "Point", "coordinates": [ -68.89577674727883, -15.476723563552474 ] } },
{ "type": "Feature", "properties": { "Municipality": "Chuquihuta", "Department": "Potosí", "Province": "Rafael Bustillo", "pob_2012": 8019.0, "pob_2024": 8170.0, "diferencia": "151", "incremento_porcentual": 1.88, "proy_2022": 8287.0, "dif_proy": "-117" }, "geometry": { "type": "Point", "coordinates": [ -66.365451276533307, -18.592665529112551 ] } },
{ "type": "Feature", "properties": { "Municipality": "Ckochas", "Department": "Potosí", "Province": "José María Linares", "pob_2012": 15812.0, "pob_2024": 14301.0, "diferencia": "-1511", "incremento_porcentual": -9.56, "proy_2022": 16121.0, "dif_proy": "-1820" }, "geometry": { "type": "Point", "coordinates": [ -65.273840504258402, -19.640183971693801 ] } },
{ "type": "Feature", "properties": { "Municipality": "Cliza", "Department": "Cochabamba", "Province": "Germán Jordán", "pob_2012": 21899.0, "pob_2024": 20877.0, "diferencia": "-1022", "incremento_porcentual": -4.67, "proy_2022": 22402.0, "dif_proy": "-1525" }, "geometry": { "type": "Point", "coordinates": [ -65.936552826954625, -17.581921029149413 ] } },
{ "type": "Feature", "properties": { "Municipality": "Cobija", "Department": "Pando", "Province": "Nicolás Suárez", "pob_2012": 46267.0, "pob_2024": 54386.0, "diferencia": "8119", "incremento_porcentual": 17.55, "proy_2022": 90277.0, "dif_proy": "-35891" }, "geometry": { "type": "Point", "coordinates": [ -68.764506069962678, -11.022857235080966 ] } },
{ "type": "Feature", "properties": { "Municipality": "Cocapata", "Department": "Cochabamba", "Province": "Ayopaya", "pob_2012": 18076.0, "pob_2024": 19467.0, "diferencia": "1391", "incremento_porcentual": 7.7, "proy_2022": 17644.0, "dif_proy": "1823" }, "geometry": { "type": "Point", "coordinates": [ -66.665521654061934, -16.802145113993369 ] } },
{ "type": "Feature", "properties": { "Municipality": "Cochabamba", "Department": "Cochabamba", "Province": "Cercado", "pob_2012": 632013.0, "pob_2024": 661484.0, "diferencia": "29471", "incremento_porcentual": 4.66, "proy_2022": 856198.0, "dif_proy": "-194714" }, "geometry": { "type": "Point", "coordinates": [ -66.168689847477722, -17.42509213879222 ] } },
{ "type": "Feature", "properties": { "Municipality": "Coipasa", "Department": "Oruro", "Province": "Sabaya", "pob_2012": 903.0, "pob_2024": 1405.0, "diferencia": "502", "incremento_porcentual": 55.59, "proy_2022": 684.0, "dif_proy": "721" }, "geometry": { "type": "Point", "coordinates": [ -68.276053899251764, -19.27668407134751 ] } },
{ "type": "Feature", "properties": { "Municipality": "Colcapirhua", "Department": "Cochabamba", "Province": "Quillacollo", "pob_2012": 51990.0, "pob_2024": 66235.0, "diferencia": "14245", "incremento_porcentual": 27.4, "proy_2022": 52945.0, "dif_proy": "13290" }, "geometry": { "type": "Point", "coordinates": [ -66.232528747964594, -17.390655438513861 ] } },
{ "type": "Feature", "properties": { "Municipality": "Colcha K", "Department": "Potosí", "Province": "Nor Lipez", "pob_2012": 12997.0, "pob_2024": 12638.0, "diferencia": "-359", "incremento_porcentual": -2.76, "proy_2022": 13288.0, "dif_proy": "-650" }, "geometry": { "type": "Point", "coordinates": [ -67.653404706565084, -20.742806844092655 ] } },
{ "type": "Feature", "properties": { "Municipality": "Collana", "Department": "La Paz", "Province": "Aroma", "pob_2012": 5042.0, "pob_2024": 5525.0, "diferencia": "483", "incremento_porcentual": 9.58, "proy_2022": 3900.0, "dif_proy": "1625" }, "geometry": { "type": "Point", "coordinates": [ -68.301314524028172, -16.903798640487462 ] } },
{ "type": "Feature", "properties": { "Municipality": "Colomi", "Department": "Cochabamba", "Province": "Chapare", "pob_2012": 19285.0, "pob_2024": 19318.0, "diferencia": "033", "incremento_porcentual": 0.17, "proy_2022": 21131.0, "dif_proy": "-1813" }, "geometry": { "type": "Point", "coordinates": [ -65.865681064430333, -17.339196928781828 ] } },
{ "type": "Feature", "properties": { "Municipality": "Colpa Belgica", "Department": "Santa Cruz", "Province": "Sara", "pob_2012": 6069.0, "pob_2024": 6020.0, "diferencia": "-049", "incremento_porcentual": -0.81, "proy_2022": 6947.0, "dif_proy": "-927" }, "geometry": { "type": "Point", "coordinates": [ -63.227898588949763, -17.565350854545223 ] } },
{ "type": "Feature", "properties": { "Municipality": "Colquechaca", "Department": "Potosí", "Province": "Chayanta", "pob_2012": 35199.0, "pob_2024": 16163.0, "diferencia": "-19036", "incremento_porcentual": -54.08, "proy_2022": 36106.0, "dif_proy": "-19943" }, "geometry": { "type": "Point", "coordinates": [ -66.013556090146963, -18.808102026982905 ] } },
{ "type": "Feature", "properties": { "Municipality": "Colquencha", "Department": "La Paz", "Province": "Aroma", "pob_2012": 9879.0, "pob_2024": 12344.0, "diferencia": "2465", "incremento_porcentual": 24.95, "proy_2022": 8157.0, "dif_proy": "4187" }, "geometry": { "type": "Point", "coordinates": [ -68.242012106371618, -16.93113428119014 ] } },
{ "type": "Feature", "properties": { "Municipality": "Colquiri", "Department": "La Paz", "Province": "Inquisivi", "pob_2012": 19620.0, "pob_2024": 23456.0, "diferencia": "3836", "incremento_porcentual": 19.55, "proy_2022": 17202.0, "dif_proy": "6254" }, "geometry": { "type": "Point", "coordinates": [ -67.125940488488268, -17.391319803345393 ] } },
{ "type": "Feature", "properties": { "Municipality": "Comanche", "Department": "La Paz", "Province": "Pacajes", "pob_2012": 3880.0, "pob_2024": 5201.0, "diferencia": "1321", "incremento_porcentual": 34.05, "proy_2022": 5413.0, "dif_proy": "-212" }, "geometry": { "type": "Point", "coordinates": [ -68.422923452640859, -16.954387054035291 ] } },
{ "type": "Feature", "properties": { "Municipality": "Comarapa", "Department": "Santa Cruz", "Province": "Manuel María Caballero", "pob_2012": 15919.0, "pob_2024": 17132.0, "diferencia": "1213", "incremento_porcentual": 7.62, "proy_2022": 19982.0, "dif_proy": "-2850" }, "geometry": { "type": "Point", "coordinates": [ -64.535719212694744, -17.9132654458651 ] } },
{ "type": "Feature", "properties": { "Municipality": "Combaya", "Department": "La Paz", "Province": "Larecaja", "pob_2012": 3731.0, "pob_2024": 3502.0, "diferencia": "-229", "incremento_porcentual": -6.14, "proy_2022": 1618.0, "dif_proy": "1884" }, "geometry": { "type": "Point", "coordinates": [ -68.752938883741322, -15.804033527071766 ] } },
{ "type": "Feature", "properties": { "Municipality": "Concepción", "Department": "Santa Cruz", "Province": "Ñuflo De Chávez", "pob_2012": 18800.0, "pob_2024": 30109.0, "diferencia": "11309", "incremento_porcentual": 60.15, "proy_2022": 26438.0, "dif_proy": "3671" }, "geometry": { "type": "Point", "coordinates": [ -62.030727013606942, -16.13617342080115 ] } },
{ "type": "Feature", "properties": { "Municipality": "Copacabana", "Department": "La Paz", "Province": "Manco Kapac", "pob_2012": 14931.0, "pob_2024": 17431.0, "diferencia": "2500", "incremento_porcentual": 16.74, "proy_2022": 12575.0, "dif_proy": "4856" }, "geometry": { "type": "Point", "coordinates": [ -69.063441351003462, -16.13682283728949 ] } },
{ "type": "Feature", "properties": { "Municipality": "Coripata", "Department": "La Paz", "Province": "Nor Yungas", "pob_2012": 16930.0, "pob_2024": 23910.0, "diferencia": "6980", "incremento_porcentual": 41.23, "proy_2022": 15679.0, "dif_proy": "8231" }, "geometry": { "type": "Point", "coordinates": [ -67.602121811597272, -16.310794863835032 ] } },
{ "type": "Feature", "properties": { "Municipality": "Coro Coro", "Department": "La Paz", "Province": "Pacajes", "pob_2012": 10647.0, "pob_2024": 13395.0, "diferencia": "2748", "incremento_porcentual": 25.81, "proy_2022": 9481.0, "dif_proy": "3914" }, "geometry": { "type": "Point", "coordinates": [ -68.432311654240209, -17.173127241624989 ] } },
{ "type": "Feature", "properties": { "Municipality": "Coroico", "Department": "La Paz", "Province": "Nor Yungas", "pob_2012": 19397.0, "pob_2024": 27531.0, "diferencia": "8134", "incremento_porcentual": 41.93, "proy_2022": 16599.0, "dif_proy": "10932" }, "geometry": { "type": "Point", "coordinates": [ -67.726569252265548, -16.187727999212115 ] } },
{ "type": "Feature", "properties": { "Municipality": "Corque", "Department": "Oruro", "Province": "Carangas", "pob_2012": 9221.0, "pob_2024": 16020.0, "diferencia": "6799", "incremento_porcentual": 73.73, "proy_2022": 7704.0, "dif_proy": "8316" }, "geometry": { "type": "Point", "coordinates": [ -67.799452545410134, -18.464155727800687 ] } },
{ "type": "Feature", "properties": { "Municipality": "Cotagaita", "Department": "Potosí", "Province": "Nor Chichas", "pob_2012": 31801.0, "pob_2024": 29070.0, "diferencia": "-2731", "incremento_porcentual": -8.59, "proy_2022": 25826.0, "dif_proy": "3244" }, "geometry": { "type": "Point", "coordinates": [ -65.659021355478373, -20.819840358197908 ] } },
{ "type": "Feature", "properties": { "Municipality": "Cotoca", "Department": "Santa Cruz", "Province": "Andrés Ibáñez", "pob_2012": 45519.0, "pob_2024": 106292.0, "diferencia": "60773", "incremento_porcentual": 133.51, "proy_2022": 80023.0, "dif_proy": "26269" }, "geometry": { "type": "Point", "coordinates": [ -62.978975917259682, -17.755288939508564 ] } },
{ "type": "Feature", "properties": { "Municipality": "Cruz de Machacamarca", "Department": "Oruro", "Province": "Litoral", "pob_2012": 1967.0, "pob_2024": 1511.0, "diferencia": "-456", "incremento_porcentual": -23.18, "proy_2022": 530.0, "dif_proy": "981" }, "geometry": { "type": "Point", "coordinates": [ -68.314883867460154, -18.764722674296888 ] } },
{ "type": "Feature", "properties": { "Municipality": "Cuatro Cañadas", "Department": "Santa Cruz", "Province": "Ñuflo De Chávez", "pob_2012": 22845.0, "pob_2024": 25260.0, "diferencia": "2415", "incremento_porcentual": 10.57, "proy_2022": 26256.0, "dif_proy": "-996" }, "geometry": { "type": "Point", "coordinates": [ -62.5322679329674, -17.26870672668338 ] } },
{ "type": "Feature", "properties": { "Municipality": "Cuevo", "Department": "Santa Cruz", "Province": "Cordillera", "pob_2012": 5052.0, "pob_2024": 4953.0, "diferencia": "-099", "incremento_porcentual": -1.96, "proy_2022": 5022.0, "dif_proy": "-069" }, "geometry": { "type": "Point", "coordinates": [ -63.539243141945427, -20.330234009590281 ] } },
{ "type": "Feature", "properties": { "Municipality": "Culpina", "Department": "Chuquisaca", "Province": "Sur Cinti", "pob_2012": 17731.0, "pob_2024": 14868.0, "diferencia": "-2863", "incremento_porcentual": -16.15, "proy_2022": 17303.0, "dif_proy": "-2435" }, "geometry": { "type": "Point", "coordinates": [ -64.939184603812109, -20.821201105022919 ] } },
{ "type": "Feature", "properties": { "Municipality": "Curahuara de Carangas", "Department": "Oruro", "Province": "Sajama", "pob_2012": 4184.0, "pob_2024": 6671.0, "diferencia": "2487", "incremento_porcentual": 59.44, "proy_2022": 4252.0, "dif_proy": "2419" }, "geometry": { "type": "Point", "coordinates": [ -68.445827889361155, -17.813505219424005 ] } },
{ "type": "Feature", "properties": { "Municipality": "Curva", "Department": "La Paz", "Province": "Bautista Saavedra", "pob_2012": 3285.0, "pob_2024": 6423.0, "diferencia": "3138", "incremento_porcentual": 95.53, "proy_2022": 3351.0, "dif_proy": "3072" }, "geometry": { "type": "Point", "coordinates": [ -68.96541906469254, -14.985150601438985 ] } },
{ "type": "Feature", "properties": { "Municipality": "Desaguadero", "Department": "La Paz", "Province": "Ingavi", "pob_2012": 6987.0, "pob_2024": 7867.0, "diferencia": "880", "incremento_porcentual": 12.59, "proy_2022": 7459.0, "dif_proy": "408" }, "geometry": { "type": "Point", "coordinates": [ -68.978072419102745, -16.614257752786084 ] } },
{ "type": "Feature", "properties": { "Municipality": "El Alto", "Department": "La Paz", "Province": "Murillo", "pob_2012": 848452.0, "pob_2024": 885035.0, "diferencia": "36583", "incremento_porcentual": 4.31, "proy_2022": 1109048.0, "dif_proy": "-224013" }, "geometry": { "type": "Point", "coordinates": [ -68.203411631961202, -16.468780530426997 ] } },
{ "type": "Feature", "properties": { "Municipality": "Carmen Rivero Torrez", "Department": "Santa Cruz", "Province": "Germán Busch", "pob_2012": 6342.0, "pob_2024": 8731.0, "diferencia": "2389", "incremento_porcentual": 37.67, "proy_2022": 7069.0, "dif_proy": "1662" }, "geometry": { "type": "Point", "coordinates": [ -58.632360206657523, -18.818288711320175 ] } },
{ "type": "Feature", "properties": { "Municipality": "El Choro", "Department": "Oruro", "Province": "Cercado", "pob_2012": 8725.0, "pob_2024": 10393.0, "diferencia": "1668", "incremento_porcentual": 19.12, "proy_2022": 3487.0, "dif_proy": "6906" }, "geometry": { "type": "Point", "coordinates": [ -67.174752082217367, -18.264341918003161 ] } },
{ "type": "Feature", "properties": { "Municipality": "El Puente", "Department": "Tarija", "Province": "Méndez", "pob_2012": 11354.0, "pob_2024": 9504.0, "diferencia": "-1850", "incremento_porcentual": -16.29, "proy_2022": 11786.0, "dif_proy": "-2282" }, "geometry": { "type": "Point", "coordinates": [ -65.049457594632557, -21.278541674102662 ] } },
{ "type": "Feature", "properties": { "Municipality": "El Puente", "Department": "Santa Cruz", "Province": "Guarayos", "pob_2012": 14205.0, "pob_2024": 17214.0, "diferencia": "3009", "incremento_porcentual": 21.18, "proy_2022": 14196.0, "dif_proy": "3018" }, "geometry": { "type": "Point", "coordinates": [ -63.484943268901503, -16.147494212788601 ] } },
{ "type": "Feature", "properties": { "Municipality": "El Torno", "Department": "Santa Cruz", "Province": "Andrés Ibáñez", "pob_2012": 49652.0, "pob_2024": 55558.0, "diferencia": "5906", "incremento_porcentual": 11.89, "proy_2022": 71884.0, "dif_proy": "-16326" }, "geometry": { "type": "Point", "coordinates": [ -63.387520141131823, -17.994150450565261 ] } },
{ "type": "Feature", "properties": { "Municipality": "El Villar", "Department": "Chuquisaca", "Province": "Tomina", "pob_2012": 4465.0, "pob_2024": 5636.0, "diferencia": "1171", "incremento_porcentual": 26.23, "proy_2022": 3994.0, "dif_proy": "1642" }, "geometry": { "type": "Point", "coordinates": [ -64.315684320048717, -19.62786302904847 ] } },
{ "type": "Feature", "properties": { "Municipality": "Entre Ríos", "Department": "Cochabamba", "Province": "Carrasco", "pob_2012": 31550.0, "pob_2024": 45520.0, "diferencia": "13970", "incremento_porcentual": 44.28, "proy_2022": 23871.0, "dif_proy": "21649" }, "geometry": { "type": "Point", "coordinates": [ -64.511745725064173, -17.209176025216497 ] } },
{ "type": "Feature", "properties": { "Municipality": "Entre Ríos", "Department": "Tarija", "Province": "O'Connor", "pob_2012": 21991.0, "pob_2024": 20846.0, "diferencia": "-1145", "incremento_porcentual": -5.21, "proy_2022": 38381.0, "dif_proy": "-17535" }, "geometry": { "type": "Point", "coordinates": [ -64.167125273289443, -21.520932331470139 ] } },
{ "type": "Feature", "properties": { "Municipality": "Escara", "Department": "Oruro", "Province": "Litoral", "pob_2012": 4223.0, "pob_2024": 4194.0, "diferencia": "-029", "incremento_porcentual": -0.69, "proy_2022": 1375.0, "dif_proy": "2819" }, "geometry": { "type": "Point", "coordinates": [ -68.159340655139957, -18.694415718909557 ] } },
{ "type": "Feature", "properties": { "Municipality": "Escoma", "Department": "La Paz", "Province": "Camacho", "pob_2012": 7186.0, "pob_2024": 8810.0, "diferencia": "1624", "incremento_porcentual": 22.6, "proy_2022": 7412.0, "dif_proy": "1398" }, "geometry": { "type": "Point", "coordinates": [ -69.149129964414769, -15.638170137749247 ] } },
{ "type": "Feature", "properties": { "Municipality": "Esmeralda", "Department": "Oruro", "Province": "Litoral", "pob_2012": 2702.0, "pob_2024": 3883.0, "diferencia": "1181", "incremento_porcentual": 43.71, "proy_2022": 1017.0, "dif_proy": "2866" }, "geometry": { "type": "Point", "coordinates": [ -68.088150068108732, -18.945748331735192 ] } },
{ "type": "Feature", "properties": { "Municipality": "Eucaliptus", "Department": "Oruro", "Province": "Tomás Barrón", "pob_2012": 5267.0, "pob_2024": 5443.0, "diferencia": "176", "incremento_porcentual": 3.34, "proy_2022": 5100.0, "dif_proy": "343" }, "geometry": { "type": "Point", "coordinates": [ -67.440794831780508, -17.634585525412106 ] } },
{ "type": "Feature", "properties": { "Municipality": "Exaltación", "Department": "Beni", "Province": "Yacuma", "pob_2012": 6362.0, "pob_2024": 7890.0, "diferencia": "1528", "incremento_porcentual": 24.02, "proy_2022": 4085.0, "dif_proy": "3805" }, "geometry": { "type": "Point", "coordinates": [ -65.783193341006623, -12.803936417870728 ] } },
{ "type": "Feature", "properties": { "Municipality": "Fernández Alonso", "Department": "Santa Cruz", "Province": "Obispo Santistéban", "pob_2012": 15117.0, "pob_2024": 14625.0, "diferencia": "-492", "incremento_porcentual": -3.25, "proy_2022": 14742.0, "dif_proy": "-117" }, "geometry": { "type": "Point", "coordinates": [ -63.220580410459135, -17.003277158842302 ] } },
{ "type": "Feature", "properties": { "Municipality": "Filadelfia", "Department": "Pando", "Province": "Manuripi", "pob_2012": 5756.0, "pob_2024": 7941.0, "diferencia": "2185", "incremento_porcentual": 37.96, "proy_2022": 8123.0, "dif_proy": "-182" }, "geometry": { "type": "Point", "coordinates": [ -68.771425514994618, -11.378916735112998 ] } },
{ "type": "Feature", "properties": { "Municipality": "Gral. Saavedra", "Department": "Santa Cruz", "Province": "Obispo Santistéban", "pob_2012": 14209.0, "pob_2024": 16043.0, "diferencia": "1834", "incremento_porcentual": 12.91, "proy_2022": 17556.0, "dif_proy": "-1513" }, "geometry": { "type": "Point", "coordinates": [ -63.176292303695277, -17.168183424698768 ] } },
{ "type": "Feature", "properties": { "Municipality": "Guanay", "Department": "La Paz", "Province": "Larecaja", "pob_2012": 14788.0, "pob_2024": 16373.0, "diferencia": "1585", "incremento_porcentual": 10.72, "proy_2022": 13711.0, "dif_proy": "2662" }, "geometry": { "type": "Point", "coordinates": [ -68.042236551719157, -15.736199511408095 ] } },
{ "type": "Feature", "properties": { "Municipality": "Guayaramerín", "Department": "Beni", "Province": "Vaca Diez", "pob_2012": 41814.0, "pob_2024": 40759.0, "diferencia": "-1055", "incremento_porcentual": -2.52, "proy_2022": 51188.0, "dif_proy": "-10429" }, "geometry": { "type": "Point", "coordinates": [ -65.369428785420567, -10.809548316939599 ] } },
{ "type": "Feature", "properties": { "Municipality": "Gutiérrez", "Department": "Santa Cruz", "Province": "Cordillera", "pob_2012": 12273.0, "pob_2024": 15169.0, "diferencia": "2896", "incremento_porcentual": 23.6, "proy_2022": 15921.0, "dif_proy": "-752" }, "geometry": { "type": "Point", "coordinates": [ -63.501713264758088, -19.395945203010136 ] } },
{ "type": "Feature", "properties": { "Municipality": "Huacaraje", "Department": "Beni", "Province": "Iténez", "pob_2012": 4111.0, "pob_2024": 4628.0, "diferencia": "517", "incremento_porcentual": 12.58, "proy_2022": 4069.0, "dif_proy": "559" }, "geometry": { "type": "Point", "coordinates": [ -64.062854313172181, -13.824087311657438 ] } },
{ "type": "Feature", "properties": { "Municipality": "Huacareta", "Department": "Chuquisaca", "Province": "Hernando Siles", "pob_2012": 8349.0, "pob_2024": 7201.0, "diferencia": "-1148", "incremento_porcentual": -13.75, "proy_2022": 8244.0, "dif_proy": "-1043" }, "geometry": { "type": "Point", "coordinates": [ -64.016744858230126, -20.377715221199409 ] } },
{ "type": "Feature", "properties": { "Municipality": "Huacaya", "Department": "Chuquisaca", "Province": "Luis Calvo", "pob_2012": 2541.0, "pob_2024": 2546.0, "diferencia": "005", "incremento_porcentual": 0.2, "proy_2022": 2498.0, "dif_proy": "048" }, "geometry": { "type": "Point", "coordinates": [ -63.594706602186221, -20.716629909335289 ] } },
{ "type": "Feature", "properties": { "Municipality": "Huachacalla", "Department": "Oruro", "Province": "Litoral", "pob_2012": 1003.0, "pob_2024": 3974.0, "diferencia": "2971", "incremento_porcentual": 296.21, "proy_2022": 1465.0, "dif_proy": "2509" }, "geometry": { "type": "Point", "coordinates": [ -68.275109960278371, -18.794517197154661 ] } },
{ "type": "Feature", "properties": { "Municipality": "Huanuni", "Department": "Oruro", "Province": "Pantaleón Dalence", "pob_2012": 24677.0, "pob_2024": 20028.0, "diferencia": "-4649", "incremento_porcentual": -18.84, "proy_2022": 25625.0, "dif_proy": "-5597" }, "geometry": { "type": "Point", "coordinates": [ -66.832867827754555, -18.287402598643144 ] } },
{ "type": "Feature", "properties": { "Municipality": "Huarina", "Department": "La Paz", "Province": "Omasuyos", "pob_2012": 7948.0, "pob_2024": 8657.0, "diferencia": "709", "incremento_porcentual": 8.92, "proy_2022": 7532.0, "dif_proy": "1125" }, "geometry": { "type": "Point", "coordinates": [ -68.593355905006703, -16.165084549913118 ] } },
{ "type": "Feature", "properties": { "Municipality": "Huatajata", "Department": "La Paz", "Province": "Omasuyos", "pob_2012": 3927.0, "pob_2024": 5096.0, "diferencia": "1169", "incremento_porcentual": 29.77, "proy_2022": 4579.0, "dif_proy": "517" }, "geometry": { "type": "Point", "coordinates": [ -68.690797591214235, -16.197998384234275 ] } },
{ "type": "Feature", "properties": { "Municipality": "Huayllamarca", "Department": "Oruro", "Province": "Nor Carangas", "pob_2012": 5502.0, "pob_2024": 5980.0, "diferencia": "478", "incremento_porcentual": 8.69, "proy_2022": 4835.0, "dif_proy": "1145" }, "geometry": { "type": "Point", "coordinates": [ -67.820146259866846, -17.92751596831398 ] } },
{ "type": "Feature", "properties": { "Municipality": "Humanata", "Department": "La Paz", "Province": "Camacho", "pob_2012": 5342.0, "pob_2024": 5615.0, "diferencia": "273", "incremento_porcentual": 5.11, "proy_2022": 5929.0, "dif_proy": "-314" }, "geometry": { "type": "Point", "coordinates": [ -69.170828327036531, -15.414450045759926 ] } },
{ "type": "Feature", "properties": { "Municipality": "Ichoca", "Department": "La Paz", "Province": "Inquisivi", "pob_2012": 7913.0, "pob_2024": 9536.0, "diferencia": "1623", "incremento_porcentual": 20.51, "proy_2022": 6825.0, "dif_proy": "2711" }, "geometry": { "type": "Point", "coordinates": [ -67.193466539108627, -17.184826200765109 ] } },
{ "type": "Feature", "properties": { "Municipality": "Incahuasi", "Department": "Chuquisaca", "Province": "Nor Cinti", "pob_2012": 13056.0, "pob_2024": 16311.0, "diferencia": "3255", "incremento_porcentual": 24.93, "proy_2022": 12587.0, "dif_proy": "3724" }, "geometry": { "type": "Point", "coordinates": [ -64.870985086458887, -20.775027748079257 ] } },
{ "type": "Feature", "properties": { "Municipality": "Ingavi", "Department": "Pando", "Province": "Abuná", "pob_2012": 1654.0, "pob_2024": 2584.0, "diferencia": "930", "incremento_porcentual": 56.23, "proy_2022": 2537.0, "dif_proy": "047" }, "geometry": { "type": "Point", "coordinates": [ -66.747379856381102, -10.504638097563204 ] } },
{ "type": "Feature", "properties": { "Municipality": "Inquisivi", "Department": "La Paz", "Province": "Inquisivi", "pob_2012": 14717.0, "pob_2024": 18764.0, "diferencia": "4047", "incremento_porcentual": 27.5, "proy_2022": 12401.0, "dif_proy": "6363" }, "geometry": { "type": "Point", "coordinates": [ -67.138355562747222, -16.898616652159706 ] } },
{ "type": "Feature", "properties": { "Municipality": "Irupana", "Department": "La Paz", "Province": "Sud Yungas", "pob_2012": 17276.0, "pob_2024": 23076.0, "diferencia": "5800", "incremento_porcentual": 33.57, "proy_2022": 14906.0, "dif_proy": "8170" }, "geometry": { "type": "Point", "coordinates": [ -67.452223726566089, -16.469049850367888 ] } },
{ "type": "Feature", "properties": { "Municipality": "Ixiamas", "Department": "La Paz", "Province": "Abel Iturralde", "pob_2012": 9362.0, "pob_2024": 12487.0, "diferencia": "3125", "incremento_porcentual": 33.38, "proy_2022": 9690.0, "dif_proy": "2797" }, "geometry": { "type": "Point", "coordinates": [ -68.129989769870974, -13.759685427043658 ] } },
{ "type": "Feature", "properties": { "Municipality": "Jesús de Machaca", "Department": "La Paz", "Province": "Ingavi", "pob_2012": 15039.0, "pob_2024": 16957.0, "diferencia": "1918", "incremento_porcentual": 12.75, "proy_2022": 11926.0, "dif_proy": "5031" }, "geometry": { "type": "Point", "coordinates": [ -68.73998556672953, -16.760733299348061 ] } },
{ "type": "Feature", "properties": { "Municipality": "San Andrés de Machaca", "Department": "La Paz", "Province": "Ingavi", "pob_2012": 6145.0, "pob_2024": 7832.0, "diferencia": "1687", "incremento_porcentual": 27.45, "proy_2022": 5983.0, "dif_proy": "1849" }, "geometry": { "type": "Point", "coordinates": [ -69.04354346409113, -16.89973471464296 ] } },
{ "type": "Feature", "properties": { "Municipality": "La Asunta", "Department": "La Paz", "Province": "Sud Yungas", "pob_2012": 40178.0, "pob_2024": 45586.0, "diferencia": "5408", "incremento_porcentual": 13.46, "proy_2022": 39616.0, "dif_proy": "5970" }, "geometry": { "type": "Point", "coordinates": [ -67.155885273275658, -16.108027210228919 ] } },
{ "type": "Feature", "properties": { "Municipality": "La Guardia", "Department": "Santa Cruz", "Province": "Andrés Ibáñez", "pob_2012": 89284.0, "pob_2024": 147622.0, "diferencia": "58338", "incremento_porcentual": 65.34, "proy_2022": 114318.0, "dif_proy": "33304" }, "geometry": { "type": "Point", "coordinates": [ -63.315511593006192, -17.895176851977418 ] } },
{ "type": "Feature", "properties": { "Municipality": "La Rivera", "Department": "Oruro", "Province": "Mejillones", "pob_2012": 509.0, "pob_2024": 1266.0, "diferencia": "757", "incremento_porcentual": 148.72, "proy_2022": 381.0, "dif_proy": "885" }, "geometry": { "type": "Point", "coordinates": [ -68.660144721263919, -19.062027430181569 ] } },
{ "type": "Feature", "properties": { "Municipality": "Lagunillas", "Department": "Santa Cruz", "Province": "Cordillera", "pob_2012": 5366.0, "pob_2024": 5910.0, "diferencia": "544", "incremento_porcentual": 10.14, "proy_2022": 6563.0, "dif_proy": "-653" }, "geometry": { "type": "Point", "coordinates": [ -63.64493662143704, -19.771552771136076 ] } },
{ "type": "Feature", "properties": { "Municipality": "Laja", "Department": "La Paz", "Province": "Los Andes", "pob_2012": 24531.0, "pob_2024": 38612.0, "diferencia": "14081", "incremento_porcentual": 57.4, "proy_2022": 17670.0, "dif_proy": "20942" }, "geometry": { "type": "Point", "coordinates": [ -68.384661102580807, -16.537629988371279 ] } },
{ "type": "Feature", "properties": { "Municipality": "Las Carreras", "Department": "Chuquisaca", "Province": "Sur Cinti", "pob_2012": 4088.0, "pob_2024": 5007.0, "diferencia": "919", "incremento_porcentual": 22.48, "proy_2022": 3058.0, "dif_proy": "1949" }, "geometry": { "type": "Point", "coordinates": [ -65.320230817511131, -21.295641628425042 ] } },
{ "type": "Feature", "properties": { "Municipality": "Llallagua", "Department": "Potosí", "Province": "Rafael Bustillo", "pob_2012": 41104.0, "pob_2024": 41571.0, "diferencia": "467", "incremento_porcentual": 1.14, "proy_2022": 50922.0, "dif_proy": "-9351" }, "geometry": { "type": "Point", "coordinates": [ -66.572193398713466, -18.363392653667301 ] } },
{ "type": "Feature", "properties": { "Municipality": "Llica", "Department": "Potosí", "Province": "Daniel Campos", "pob_2012": 4150.0, "pob_2024": 4150.0, "diferencia": "000", "incremento_porcentual": 0.0, "proy_2022": 4133.0, "dif_proy": "017" }, "geometry": { "type": "Point", "coordinates": [ -68.412187656760764, -20.050281594435063 ] } },
{ "type": "Feature", "properties": { "Municipality": "Loreto", "Department": "Beni", "Province": "Marbán", "pob_2012": 3828.0, "pob_2024": 4263.0, "diferencia": "435", "incremento_porcentual": 11.36, "proy_2022": 2926.0, "dif_proy": "1337" }, "geometry": { "type": "Point", "coordinates": [ -64.920434232404801, -15.568135262423263 ] } },
{ "type": "Feature", "properties": { "Municipality": "Luribay", "Department": "La Paz", "Province": "Loayza", "pob_2012": 11139.0, "pob_2024": 10581.0, "diferencia": "-558", "incremento_porcentual": -5.01, "proy_2022": 10196.0, "dif_proy": "385" }, "geometry": { "type": "Point", "coordinates": [ -67.660318229841877, -17.06423796704216 ] } },
{ "type": "Feature", "properties": { "Municipality": "Machacamarca", "Department": "Oruro", "Province": "Pantaleón Dalence", "pob_2012": 4820.0, "pob_2024": 6096.0, "diferencia": "1276", "incremento_porcentual": 26.47, "proy_2022": 5728.0, "dif_proy": "368" }, "geometry": { "type": "Point", "coordinates": [ -67.008414803057207, -18.165182376239308 ] } },
{ "type": "Feature", "properties": { "Municipality": "Macharetí", "Department": "Chuquisaca", "Province": "Luis Calvo", "pob_2012": 7418.0, "pob_2024": 7245.0, "diferencia": "-173", "incremento_porcentual": -2.33, "proy_2022": 7137.0, "dif_proy": "108" }, "geometry": { "type": "Point", "coordinates": [ -62.878927951678577, -20.725391117234796 ] } },
{ "type": "Feature", "properties": { "Municipality": "Magdalena", "Department": "Beni", "Province": "Iténez", "pob_2012": 11377.0, "pob_2024": 12769.0, "diferencia": "1392", "incremento_porcentual": 12.24, "proy_2022": 12180.0, "dif_proy": "589" }, "geometry": { "type": "Point", "coordinates": [ -63.687511177229702, -12.994798819320232 ] } },
{ "type": "Feature", "properties": { "Municipality": "Mairana", "Department": "Santa Cruz", "Province": "Florida", "pob_2012": 10177.0, "pob_2024": 12732.0, "diferencia": "2555", "incremento_porcentual": 25.11, "proy_2022": 13006.0, "dif_proy": "-274" }, "geometry": { "type": "Point", "coordinates": [ -63.961057316957771, -18.117698881945177 ] } },
{ "type": "Feature", "properties": { "Municipality": "Malla", "Department": "La Paz", "Province": "Loayza", "pob_2012": 5180.0, "pob_2024": 4866.0, "diferencia": "-314", "incremento_porcentual": -6.06, "proy_2022": 3075.0, "dif_proy": "1791" }, "geometry": { "type": "Point", "coordinates": [ -67.426764395748791, -17.011420000395287 ] } },
{ "type": "Feature", "properties": { "Municipality": "Mapiri", "Department": "La Paz", "Province": "Larecaja", "pob_2012": 13891.0, "pob_2024": 21805.0, "diferencia": "7914", "incremento_porcentual": 56.97, "proy_2022": 14741.0, "dif_proy": "7064" }, "geometry": { "type": "Point", "coordinates": [ -68.257653796010274, -15.380074846547997 ] } },
{ "type": "Feature", "properties": { "Municipality": "Mecapaca", "Department": "La Paz", "Province": "Murillo", "pob_2012": 16086.0, "pob_2024": 20455.0, "diferencia": "4369", "incremento_porcentual": 27.16, "proy_2022": 13204.0, "dif_proy": "7251" }, "geometry": { "type": "Point", "coordinates": [ -67.978705031041386, -16.718523952327825 ] } },
{ "type": "Feature", "properties": { "Municipality": "Mineros", "Department": "Santa Cruz", "Province": "Obispo Santistéban", "pob_2012": 23251.0, "pob_2024": 22731.0, "diferencia": "-520", "incremento_porcentual": -2.24, "proy_2022": 28483.0, "dif_proy": "-5752" }, "geometry": { "type": "Point", "coordinates": [ -63.230018859160793, -17.109291995228904 ] } },
{ "type": "Feature", "properties": { "Municipality": "Mizque", "Department": "Cochabamba", "Province": "Mizque", "pob_2012": 26900.0, "pob_2024": 19846.0, "diferencia": "-7054", "incremento_porcentual": -26.22, "proy_2022": 28417.0, "dif_proy": "-8571" }, "geometry": { "type": "Point", "coordinates": [ -65.419780966587709, -18.05604776324504 ] } },
{ "type": "Feature", "properties": { "Municipality": "Mocomoco", "Department": "La Paz", "Province": "Camacho", "pob_2012": 15665.0, "pob_2024": 17653.0, "diferencia": "1988", "incremento_porcentual": 12.69, "proy_2022": 12658.0, "dif_proy": "4995" }, "geometry": { "type": "Point", "coordinates": [ -69.035799320768405, -15.449978474199124 ] } },
{ "type": "Feature", "properties": { "Municipality": "Mojinete", "Department": "Potosí", "Province": "Sur Lipez", "pob_2012": 1180.0, "pob_2024": 1022.0, "diferencia": "-158", "incremento_porcentual": -13.39, "proy_2022": 848.0, "dif_proy": "174" }, "geometry": { "type": "Point", "coordinates": [ -66.351243454420981, -21.813971974870281 ] } },
{ "type": "Feature", "properties": { "Municipality": "Mojocoya", "Department": "Chuquisaca", "Province": "Zudáñez", "pob_2012": 8068.0, "pob_2024": 8971.0, "diferencia": "903", "incremento_porcentual": 11.19, "proy_2022": 7805.0, "dif_proy": "1166" }, "geometry": { "type": "Point", "coordinates": [ -64.644159389764198, -18.780316438147992 ] } },
{ "type": "Feature", "properties": { "Municipality": "Monteagudo", "Department": "Chuquisaca", "Province": "Hernando Siles", "pob_2012": 24303.0, "pob_2024": 24487.0, "diferencia": "184", "incremento_porcentual": 0.76, "proy_2022": 25120.0, "dif_proy": "-633" }, "geometry": { "type": "Point", "coordinates": [ -63.954084599645469, -19.80434711053908 ] } },
{ "type": "Feature", "properties": { "Municipality": "Montero", "Department": "Santa Cruz", "Province": "Obispo Santistéban", "pob_2012": 109518.0, "pob_2024": 127544.0, "diferencia": "18026", "incremento_porcentual": 16.46, "proy_2022": 147078.0, "dif_proy": "-19534" }, "geometry": { "type": "Point", "coordinates": [ -63.249923557632698, -17.33288688516437 ] } },
{ "type": "Feature", "properties": { "Municipality": "Morochata", "Department": "Cochabamba", "Province": "Ayopaya", "pob_2012": 12797.0, "pob_2024": 14598.0, "diferencia": "1801", "incremento_porcentual": 14.07, "proy_2022": 10555.0, "dif_proy": "4043" }, "geometry": { "type": "Point", "coordinates": [ -66.570627675216969, -17.202875968165049 ] } },
{ "type": "Feature", "properties": { "Municipality": "Moro Moro", "Department": "Santa Cruz", "Province": "Vallegrande", "pob_2012": 2767.0, "pob_2024": 2811.0, "diferencia": "044", "incremento_porcentual": 1.59, "proy_2022": 2583.0, "dif_proy": "228" }, "geometry": { "type": "Point", "coordinates": [ -64.344021604746814, -18.320572182918109 ] } },
{ "type": "Feature", "properties": { "Municipality": "Nazacara de Pacajes", "Department": "La Paz", "Province": "Pacajes", "pob_2012": 619.0, "pob_2024": 3990.0, "diferencia": "3371", "incremento_porcentual": 544.59, "proy_2022": 616.0, "dif_proy": "3374" }, "geometry": { "type": "Point", "coordinates": [ -68.757234611478836, -16.92669880375249 ] } },
{ "type": "Feature", "properties": { "Municipality": "La Paz", "Department": "La Paz", "Province": "Murillo", "pob_2012": 766468.0, "pob_2024": 755732.0, "diferencia": "-10736", "incremento_porcentual": -1.4, "proy_2022": 956732.0, "dif_proy": "-201000" }, "geometry": { "type": "Point", "coordinates": [ -68.130048072667734, -16.482963321927617 ] } },
{ "type": "Feature", "properties": { "Municipality": "Nueva Esperanza", "Department": "Pando", "Province": "Federico Román", "pob_2012": 2068.0, "pob_2024": 1390.0, "diferencia": "-678", "incremento_porcentual": -32.79, "proy_2022": 1840.0, "dif_proy": "-450" }, "geometry": { "type": "Point", "coordinates": [ -65.537801864697713, -10.111324249051489 ] } },
{ "type": "Feature", "properties": { "Municipality": "Ocurí", "Department": "Potosí", "Province": "Chayanta", "pob_2012": 16118.0, "pob_2024": 14367.0, "diferencia": "-1751", "incremento_porcentual": -10.86, "proy_2022": 15366.0, "dif_proy": "-999" }, "geometry": { "type": "Point", "coordinates": [ -65.768391945709041, -18.889861788166332 ] } },
{ "type": "Feature", "properties": { "Municipality": "Okinawa Uno", "Department": "Santa Cruz", "Province": "Warnes", "pob_2012": 12482.0, "pob_2024": 10508.0, "diferencia": "-1974", "incremento_porcentual": -15.81, "proy_2022": 14001.0, "dif_proy": "-3493" }, "geometry": { "type": "Point", "coordinates": [ -62.865500992988331, -17.322857873364843 ] } },
{ "type": "Feature", "properties": { "Municipality": "Omereque", "Department": "Cochabamba", "Province": "Campero", "pob_2012": 5643.0, "pob_2024": 6678.0, "diferencia": "1035", "incremento_porcentual": 18.34, "proy_2022": 4531.0, "dif_proy": "2147" }, "geometry": { "type": "Point", "coordinates": [ -64.893375542037234, -18.070463666326088 ] } },
{ "type": "Feature", "properties": { "Municipality": "Oruro", "Department": "Oruro", "Province": "Cercado", "pob_2012": 264943.0, "pob_2024": 297497.0, "diferencia": "32554", "incremento_porcentual": 12.29, "proy_2022": 351802.0, "dif_proy": "-54305" }, "geometry": { "type": "Point", "coordinates": [ -67.091496606597744, -17.959970736942825 ] } },
{ "type": "Feature", "properties": { "Municipality": "Padcaya", "Department": "Tarija", "Province": "Arce", "pob_2012": 18681.0, "pob_2024": 17783.0, "diferencia": "-898", "incremento_porcentual": -4.81, "proy_2022": 19148.0, "dif_proy": "-1365" }, "geometry": { "type": "Point", "coordinates": [ -64.529520459236863, -22.133867535588912 ] } },
{ "type": "Feature", "properties": { "Municipality": "Padilla", "Department": "Chuquisaca", "Province": "Tomina", "pob_2012": 10383.0, "pob_2024": 7542.0, "diferencia": "-2841", "incremento_porcentual": -27.36, "proy_2022": 10212.0, "dif_proy": "-2670" }, "geometry": { "type": "Point", "coordinates": [ -64.160760486252471, -19.374779826796939 ] } },
{ "type": "Feature", "properties": { "Municipality": "Pailón", "Department": "Santa Cruz", "Province": "Chiquitos", "pob_2012": 37866.0, "pob_2024": 54357.0, "diferencia": "16491", "incremento_porcentual": 43.55, "proy_2022": 44248.0, "dif_proy": "10109" }, "geometry": { "type": "Point", "coordinates": [ -62.71464819050145, -17.655095092299263 ] } },
{ "type": "Feature", "properties": { "Municipality": "Palca", "Department": "La Paz", "Province": "Murillo", "pob_2012": 16622.0, "pob_2024": 21641.0, "diferencia": "5019", "incremento_porcentual": 30.19, "proy_2022": 15684.0, "dif_proy": "5957" }, "geometry": { "type": "Point", "coordinates": [ -67.826135726237567, -16.666335359222519 ] } },
{ "type": "Feature", "properties": { "Municipality": "Palos Blancos", "Department": "La Paz", "Province": "Sud Yungas", "pob_2012": 24731.0, "pob_2024": 26995.0, "diferencia": "2264", "incremento_porcentual": 9.15, "proy_2022": 24074.0, "dif_proy": "2921" }, "geometry": { "type": "Point", "coordinates": [ -67.231558844572248, -15.417684027586354 ] } },
{ "type": "Feature", "properties": { "Municipality": "Pampa Aullagas", "Department": "Oruro", "Province": "Ladislao Cabrera", "pob_2012": 2973.0, "pob_2024": 3180.0, "diferencia": "207", "incremento_porcentual": 6.96, "proy_2022": 3007.0, "dif_proy": "173" }, "geometry": { "type": "Point", "coordinates": [ -67.165179852102185, -19.231458042621071 ] } },
{ "type": "Feature", "properties": { "Municipality": "Pampa Grande", "Department": "Santa Cruz", "Province": "Florida", "pob_2012": 9198.0, "pob_2024": 9650.0, "diferencia": "452", "incremento_porcentual": 4.91, "proy_2022": 9889.0, "dif_proy": "-239" }, "geometry": { "type": "Point", "coordinates": [ -64.153399637774683, -18.045497111387977 ] } },
{ "type": "Feature", "properties": { "Municipality": "Papel Pampa", "Department": "La Paz", "Province": "Gualberto Villarroel", "pob_2012": 7003.0, "pob_2024": 6222.0, "diferencia": "-781", "incremento_porcentual": -11.15, "proy_2022": 6437.0, "dif_proy": "-215" }, "geometry": { "type": "Point", "coordinates": [ -67.709619310078708, -17.697216452019497 ] } },
{ "type": "Feature", "properties": { "Municipality": "Soracachi", "Department": "Oruro", "Province": "Cercado", "pob_2012": 12846.0, "pob_2024": 15675.0, "diferencia": "2829", "incremento_porcentual": 22.02, "proy_2022": 12010.0, "dif_proy": "3665" }, "geometry": { "type": "Point", "coordinates": [ -66.935963586245322, -17.857170087390028 ] } },
{ "type": "Feature", "properties": { "Municipality": "Pasorapa", "Department": "Cochabamba", "Province": "Campero", "pob_2012": 6853.0, "pob_2024": 6468.0, "diferencia": "-385", "incremento_porcentual": -5.62, "proy_2022": 2782.0, "dif_proy": "3686" }, "geometry": { "type": "Point", "coordinates": [ -64.600906420150721, -18.392293799101942 ] } },
{ "type": "Feature", "properties": { "Municipality": "Patacamaya", "Department": "La Paz", "Province": "Aroma", "pob_2012": 22858.0, "pob_2024": 25049.0, "diferencia": "2191", "incremento_porcentual": 9.59, "proy_2022": 22303.0, "dif_proy": "2746" }, "geometry": { "type": "Point", "coordinates": [ -67.913346569515042, -17.216472891912368 ] } },
{ "type": "Feature", "properties": { "Municipality": "Pazña", "Department": "Oruro", "Province": "Poopó", "pob_2012": 5955.0, "pob_2024": 4220.0, "diferencia": "-1735", "incremento_porcentual": -29.14, "proy_2022": 5412.0, "dif_proy": "-1192" }, "geometry": { "type": "Point", "coordinates": [ -66.912979109691861, -18.613399607647285 ] } },
{ "type": "Feature", "properties": { "Municipality": "Pelechuco", "Department": "La Paz", "Province": "Franz Tamayo", "pob_2012": 6780.0, "pob_2024": 8993.0, "diferencia": "2213", "incremento_porcentual": 32.64, "proy_2022": 7444.0, "dif_proy": "1549" }, "geometry": { "type": "Point", "coordinates": [ -69.090592862084094, -14.800645320822156 ] } },
{ "type": "Feature", "properties": { "Municipality": "Pocoata", "Department": "Potosí", "Province": "Chayanta", "pob_2012": 26330.0, "pob_2024": 32307.0, "diferencia": "5977", "incremento_porcentual": 22.7, "proy_2022": 25531.0, "dif_proy": "6776" }, "geometry": { "type": "Point", "coordinates": [ -66.155703591404361, -18.639367657455324 ] } },
{ "type": "Feature", "properties": { "Municipality": "Pocona", "Department": "Cochabamba", "Province": "Carrasco", "pob_2012": 10750.0, "pob_2024": 12216.0, "diferencia": "1466", "incremento_porcentual": 13.64, "proy_2022": 9365.0, "dif_proy": "2851" }, "geometry": { "type": "Point", "coordinates": [ -65.371824906722935, -17.681908485933462 ] } },
{ "type": "Feature", "properties": { "Municipality": "Pojo", "Department": "Cochabamba", "Province": "Carrasco", "pob_2012": 10156.0, "pob_2024": 11840.0, "diferencia": "1684", "incremento_porcentual": 16.58, "proy_2022": 10146.0, "dif_proy": "1694" }, "geometry": { "type": "Point", "coordinates": [ -64.875837008734322, -17.730983525478191 ] } },
{ "type": "Feature", "properties": { "Municipality": "Poopó", "Department": "Oruro", "Province": "Poopó", "pob_2012": 7587.0, "pob_2024": 9152.0, "diferencia": "1565", "incremento_porcentual": 20.63, "proy_2022": 6959.0, "dif_proy": "2193" }, "geometry": { "type": "Point", "coordinates": [ -66.94157428594913, -18.366687739074703 ] } },
{ "type": "Feature", "properties": { "Municipality": "Porco", "Department": "Potosí", "Province": "Antonio Quijarro", "pob_2012": 10866.0, "pob_2024": 14626.0, "diferencia": "3760", "incremento_porcentual": 34.6, "proy_2022": 13337.0, "dif_proy": "1289" }, "geometry": { "type": "Point", "coordinates": [ -65.98413101096564, -19.807946810602136 ] } },
{ "type": "Feature", "properties": { "Municipality": "Poroma", "Department": "Chuquisaca", "Province": "Oropeza", "pob_2012": 17377.0, "pob_2024": 13640.0, "diferencia": "-3737", "incremento_porcentual": -21.51, "proy_2022": 15777.0, "dif_proy": "-2137" }, "geometry": { "type": "Point", "coordinates": [ -65.385155832361846, -18.621718194121865 ] } },
{ "type": "Feature", "properties": { "Municipality": "Porongo", "Department": "Santa Cruz", "Province": "Andrés Ibáñez", "pob_2012": 15317.0, "pob_2024": 23016.0, "diferencia": "7699", "incremento_porcentual": 50.26, "proy_2022": 14496.0, "dif_proy": "8520" }, "geometry": { "type": "Point", "coordinates": [ -63.305738005260189, -17.844333897706065 ] } },
{ "type": "Feature", "properties": { "Municipality": "Portachuelo", "Department": "Santa Cruz", "Province": "Sara", "pob_2012": 17885.0, "pob_2024": 20709.0, "diferencia": "2824", "incremento_porcentual": 15.79, "proy_2022": 37793.0, "dif_proy": "-17084" }, "geometry": { "type": "Point", "coordinates": [ -63.396192921961472, -17.351587276070411 ] } },
{ "type": "Feature", "properties": { "Municipality": "Porvenir", "Department": "Pando", "Province": "Nicolás Suárez", "pob_2012": 7948.0, "pob_2024": 8970.0, "diferencia": "1022", "incremento_porcentual": 12.86, "proy_2022": 8243.0, "dif_proy": "727" }, "geometry": { "type": "Point", "coordinates": [ -68.793441175259318, -11.238267303402759 ] } },
{ "type": "Feature", "properties": { "Municipality": "Postrer Valle", "Department": "Santa Cruz", "Province": "Vallegrande", "pob_2012": 2390.0, "pob_2024": 1796.0, "diferencia": "-594", "incremento_porcentual": -24.85, "proy_2022": 2071.0, "dif_proy": "-275" }, "geometry": { "type": "Point", "coordinates": [ -63.763214454439449, -18.625005854425893 ] } },
{ "type": "Feature", "properties": { "Municipality": "Potosí", "Department": "Potosí", "Province": "Tomás Frías", "pob_2012": 191302.0, "pob_2024": 218336.0, "diferencia": "27034", "incremento_porcentual": 14.13, "proy_2022": 269180.0, "dif_proy": "-50844" }, "geometry": { "type": "Point", "coordinates": [ -65.753498857363368, -19.584207248863571 ] } },
{ "type": "Feature", "properties": { "Municipality": "Presto", "Department": "Chuquisaca", "Province": "Zudáñez", "pob_2012": 12385.0, "pob_2024": 12023.0, "diferencia": "-362", "incremento_porcentual": -2.92, "proy_2022": 10042.0, "dif_proy": "1981" }, "geometry": { "type": "Point", "coordinates": [ -64.893024400268885, -18.755604801433151 ] } },
{ "type": "Feature", "properties": { "Municipality": "Pucara", "Department": "Santa Cruz", "Province": "Vallegrande", "pob_2012": 2076.0, "pob_2024": 2009.0, "diferencia": "-067", "incremento_porcentual": -3.23, "proy_2022": 1747.0, "dif_proy": "262" }, "geometry": { "type": "Point", "coordinates": [ -64.19099120138516, -18.762539962358289 ] } },
{ "type": "Feature", "properties": { "Municipality": "Pucarani", "Department": "La Paz", "Province": "Los Andes", "pob_2012": 28465.0, "pob_2024": 49701.0, "diferencia": "21236", "incremento_porcentual": 74.6, "proy_2022": 24795.0, "dif_proy": "24906" }, "geometry": { "type": "Point", "coordinates": [ -68.416126515065898, -16.360445752451561 ] } },
{ "type": "Feature", "properties": { "Municipality": "Puerto Acosta", "Department": "La Paz", "Province": "Camacho", "pob_2012": 11290.0, "pob_2024": 13940.0, "diferencia": "2650", "incremento_porcentual": 23.47, "proy_2022": 10350.0, "dif_proy": "3590" }, "geometry": { "type": "Point", "coordinates": [ -69.21557290750934, -15.554979045165076 ] } },
{ "type": "Feature", "properties": { "Municipality": "Puerto Gonzales Moreno", "Department": "Pando", "Province": "Madre de Dios", "pob_2012": 8160.0, "pob_2024": 12006.0, "diferencia": "3846", "incremento_porcentual": 47.13, "proy_2022": 7240.0, "dif_proy": "4766" }, "geometry": { "type": "Point", "coordinates": [ -66.325107385161488, -11.167128734657082 ] } },
{ "type": "Feature", "properties": { "Municipality": "Pto. Carabuco", "Department": "La Paz", "Province": "Camacho", "pob_2012": 14589.0, "pob_2024": 17248.0, "diferencia": "2659", "incremento_porcentual": 18.23, "proy_2022": 9756.0, "dif_proy": "7492" }, "geometry": { "type": "Point", "coordinates": [ -69.000926384399946, -15.712043582384013 ] } },
{ "type": "Feature", "properties": { "Municipality": "Guaqui", "Department": "La Paz", "Province": "Ingavi", "pob_2012": 7278.0, "pob_2024": 8599.0, "diferencia": "1321", "incremento_porcentual": 18.15, "proy_2022": 7728.0, "dif_proy": "871" }, "geometry": { "type": "Point", "coordinates": [ -68.820809718645663, -16.606754182400429 ] } },
{ "type": "Feature", "properties": { "Municipality": "Rurrenabaque", "Department": "Beni", "Province": "General José Ballivián", "pob_2012": 19195.0, "pob_2024": 21018.0, "diferencia": "1823", "incremento_porcentual": 9.5, "proy_2022": 21580.0, "dif_proy": "-562" }, "geometry": { "type": "Point", "coordinates": [ -67.50212374223814, -14.436461969074344 ] } },
{ "type": "Feature", "properties": { "Municipality": "Puerto Pérez", "Department": "La Paz", "Province": "Los Andes", "pob_2012": 8157.0, "pob_2024": 7874.0, "diferencia": "-283", "incremento_porcentual": -3.47, "proy_2022": 7670.0, "dif_proy": "204" }, "geometry": { "type": "Point", "coordinates": [ -68.647846617016313, -16.326662241053981 ] } },
{ "type": "Feature", "properties": { "Municipality": "Puerto Quijarro", "Department": "Santa Cruz", "Province": "Germán Busch", "pob_2012": 16659.0, "pob_2024": 17826.0, "diferencia": "1167", "incremento_porcentual": 7.01, "proy_2022": 19328.0, "dif_proy": "-1502" }, "geometry": { "type": "Point", "coordinates": [ -57.75295590049388, -18.994150802513261 ] } },
{ "type": "Feature", "properties": { "Municipality": "Puerto Rico", "Department": "Pando", "Province": "Manuripi", "pob_2012": 6239.0, "pob_2024": 7217.0, "diferencia": "978", "incremento_porcentual": 15.68, "proy_2022": 10759.0, "dif_proy": "-3542" }, "geometry": { "type": "Point", "coordinates": [ -67.538056523145599, -11.327725804707292 ] } },
{ "type": "Feature", "properties": { "Municipality": "Puerto Siles", "Department": "Beni", "Province": "Mamoré", "pob_2012": 945.0, "pob_2024": 1095.0, "diferencia": "150", "incremento_porcentual": 15.87, "proy_2022": 1116.0, "dif_proy": "-021" }, "geometry": { "type": "Point", "coordinates": [ -64.986308889188138, -12.424251018087034 ] } },
{ "type": "Feature", "properties": { "Municipality": "Puerto Suarez", "Department": "Santa Cruz", "Province": "Germán Busch", "pob_2012": 19829.0, "pob_2024": 17378.0, "diferencia": "-2451", "incremento_porcentual": -12.36, "proy_2022": 23113.0, "dif_proy": "-5735" }, "geometry": { "type": "Point", "coordinates": [ -57.849983175905734, -18.960360314532068 ] } },
{ "type": "Feature", "properties": { "Municipality": "Puerto Villarroel", "Department": "Cochabamba", "Province": "Carrasco", "pob_2012": 46627.0, "pob_2024": 64345.0, "diferencia": "17718", "incremento_porcentual": 38.0, "proy_2022": 62832.0, "dif_proy": "1513" }, "geometry": { "type": "Point", "coordinates": [ -64.884527493049859, -17.032559987524465 ] } },
{ "type": "Feature", "properties": { "Municipality": "Puna", "Department": "Potosí", "Province": "José María Linares", "pob_2012": 21917.0, "pob_2024": 16350.0, "diferencia": "-5567", "incremento_porcentual": -25.4, "proy_2022": 19930.0, "dif_proy": "-3580" }, "geometry": { "type": "Point", "coordinates": [ -65.400073604310421, -19.876835308726431 ] } },
{ "type": "Feature", "properties": { "Municipality": "Punata", "Department": "Cochabamba", "Province": "Punata", "pob_2012": 28887.0, "pob_2024": 34813.0, "diferencia": "5926", "incremento_porcentual": 20.51, "proy_2022": 46901.0, "dif_proy": "-12088" }, "geometry": { "type": "Point", "coordinates": [ -65.831312428712224, -17.549257302630348 ] } },
{ "type": "Feature", "properties": { "Municipality": "Quiabaya", "Department": "La Paz", "Province": "Larecaja", "pob_2012": 2684.0, "pob_2024": 4221.0, "diferencia": "1537", "incremento_porcentual": 57.27, "proy_2022": 2468.0, "dif_proy": "1753" }, "geometry": { "type": "Point", "coordinates": [ -68.714174971939499, -15.602455154368505 ] } },
{ "type": "Feature", "properties": { "Municipality": "Quillacollo", "Department": "Cochabamba", "Province": "Quillacollo", "pob_2012": 137182.0, "pob_2024": 165830.0, "diferencia": "28648", "incremento_porcentual": 20.88, "proy_2022": 185142.0, "dif_proy": "-19312" }, "geometry": { "type": "Point", "coordinates": [ -66.275210468349158, -17.391586958384256 ] } },
{ "type": "Feature", "properties": { "Municipality": "Quime", "Department": "La Paz", "Province": "Inquisivi", "pob_2012": 8266.0, "pob_2024": 11184.0, "diferencia": "2918", "incremento_porcentual": 35.3, "proy_2022": 8504.0, "dif_proy": "2680" }, "geometry": { "type": "Point", "coordinates": [ -67.3408812533348, -16.848932352094721 ] } },
{ "type": "Feature", "properties": { "Municipality": "Quirusillas", "Department": "Santa Cruz", "Province": "Florida", "pob_2012": 2995.0, "pob_2024": 3095.0, "diferencia": "100", "incremento_porcentual": 3.34, "proy_2022": 2158.0, "dif_proy": "937" }, "geometry": { "type": "Point", "coordinates": [ -63.937565942226655, -18.370617557819028 ] } },
{ "type": "Feature", "properties": { "Municipality": "Ravelo", "Department": "Potosí", "Province": "Chayanta", "pob_2012": 20789.0, "pob_2024": 16728.0, "diferencia": "-4061", "incremento_porcentual": -19.53, "proy_2022": 18362.0, "dif_proy": "-1634" }, "geometry": { "type": "Point", "coordinates": [ -65.563344811661494, -18.752689526106742 ] } },
{ "type": "Feature", "properties": { "Municipality": "Reyes", "Department": "Beni", "Province": "General José Ballivián", "pob_2012": 13246.0, "pob_2024": 11274.0, "diferencia": "-1972", "incremento_porcentual": -14.89, "proy_2022": 11811.0, "dif_proy": "-537" }, "geometry": { "type": "Point", "coordinates": [ -67.058108188329371, -13.403012494918066 ] } },
{ "type": "Feature", "properties": { "Municipality": "Riberalta", "Department": "Beni", "Province": "Vaca Diez", "pob_2012": 89022.0, "pob_2024": 107141.0, "diferencia": "18119", "incremento_porcentual": 20.35, "proy_2022": 114869.0, "dif_proy": "-7728" }, "geometry": { "type": "Point", "coordinates": [ -66.056252601778468, -11.016506982193052 ] } },
{ "type": "Feature", "properties": { "Municipality": "Roboré", "Department": "Santa Cruz", "Province": "Chiquitos", "pob_2012": 15641.0, "pob_2024": 18701.0, "diferencia": "3060", "incremento_porcentual": 19.56, "proy_2022": 19224.0, "dif_proy": "-523" }, "geometry": { "type": "Point", "coordinates": [ -59.745035610052057, -18.346766183905284 ] } },
{ "type": "Feature", "properties": { "Municipality": "Sabaya", "Department": "Oruro", "Province": "Sabaya", "pob_2012": 8018.0, "pob_2024": 15387.0, "diferencia": "7369", "incremento_porcentual": 91.91, "proy_2022": 6365.0, "dif_proy": "9022" }, "geometry": { "type": "Point", "coordinates": [ -68.609924083035864, -18.907609638648921 ] } },
{ "type": "Feature", "properties": { "Municipality": "Sacaba", "Department": "Cochabamba", "Province": "Chapare", "pob_2012": 172466.0, "pob_2024": 218502.0, "diferencia": "46036", "incremento_porcentual": 26.69, "proy_2022": 184593.0, "dif_proy": "33909" }, "geometry": { "type": "Point", "coordinates": [ -66.03619848631169, -17.401081158388859 ] } },
{ "type": "Feature", "properties": { "Municipality": "Sacabamba", "Department": "Cochabamba", "Province": "Esteban Arze", "pob_2012": 4366.0, "pob_2024": 4953.0, "diferencia": "587", "incremento_porcentual": 13.44, "proy_2022": 3166.0, "dif_proy": "1787" }, "geometry": { "type": "Point", "coordinates": [ -65.786225614305664, -17.776442235542646 ] } },
{ "type": "Feature", "properties": { "Municipality": "Villa deSacaca", "Department": "Potosí", "Province": "Alonso de Ibáñez", "pob_2012": 19611.0, "pob_2024": 17188.0, "diferencia": "-2423", "incremento_porcentual": -12.36, "proy_2022": 20175.0, "dif_proy": "-2987" }, "geometry": { "type": "Point", "coordinates": [ -66.385702036873425, -18.067245308321663 ] } },
{ "type": "Feature", "properties": { "Municipality": "Saipina", "Department": "Santa Cruz", "Province": "Manuel María Caballero", "pob_2012": 7390.0, "pob_2024": 6057.0, "diferencia": "-1333", "incremento_porcentual": -18.04, "proy_2022": 7310.0, "dif_proy": "-1253" }, "geometry": { "type": "Point", "coordinates": [ -64.581470737722157, -18.096397793631031 ] } },
{ "type": "Feature", "properties": { "Municipality": "Salinas de García Mendoza", "Department": "Oruro", "Province": "Ladislao Cabrera", "pob_2012": 11878.0, "pob_2024": 15906.0, "diferencia": "4028", "incremento_porcentual": 33.91, "proy_2022": 9776.0, "dif_proy": "6130" }, "geometry": { "type": "Point", "coordinates": [ -67.614131055910491, -19.436634111722888 ] } },
{ "type": "Feature", "properties": { "Municipality": "Samaipata", "Department": "Santa Cruz", "Province": "Florida", "pob_2012": 10472.0, "pob_2024": 11814.0, "diferencia": "1342", "incremento_porcentual": 12.82, "proy_2022": 10653.0, "dif_proy": "1161" }, "geometry": { "type": "Point", "coordinates": [ -63.875187910724705, -18.178062676088185 ] } },
{ "type": "Feature", "properties": { "Municipality": "San Agustín", "Department": "Potosí", "Province": "Enrique Baldivieso", "pob_2012": 1684.0, "pob_2024": 2119.0, "diferencia": "435", "incremento_porcentual": 25.83, "proy_2022": 1997.0, "dif_proy": "122" }, "geometry": { "type": "Point", "coordinates": [ -67.413958640892915, -21.495295777708435 ] } },
{ "type": "Feature", "properties": { "Municipality": "San Andrés", "Department": "Beni", "Province": "Marbán", "pob_2012": 12503.0, "pob_2024": 15635.0, "diferencia": "3132", "incremento_porcentual": 25.05, "proy_2022": 13134.0, "dif_proy": "2501" }, "geometry": { "type": "Point", "coordinates": [ -64.142282123943261, -15.37398151438839 ] } },
{ "type": "Feature", "properties": { "Municipality": "San Antonio de Esmoruco", "Department": "Potosí", "Province": "Sur Lipez", "pob_2012": 2284.0, "pob_2024": 1941.0, "diferencia": "-343", "incremento_porcentual": -15.02, "proy_2022": 2188.0, "dif_proy": "-247" }, "geometry": { "type": "Point", "coordinates": [ -66.634465985881945, -22.084160860099836 ] } },
{ "type": "Feature", "properties": { "Municipality": "San Antonio de Lomerío", "Department": "Santa Cruz", "Province": "Ñuflo De Chávez", "pob_2012": 6481.0, "pob_2024": 6346.0, "diferencia": "-135", "incremento_porcentual": -2.08, "proy_2022": 7004.0, "dif_proy": "-658" }, "geometry": { "type": "Point", "coordinates": [ -61.807069427257254, -16.768017575522546 ] } },
{ "type": "Feature", "properties": { "Municipality": "San Benito", "Department": "Cochabamba", "Province": "Punata", "pob_2012": 13562.0, "pob_2024": 12924.0, "diferencia": "-638", "incremento_porcentual": -4.7, "proy_2022": 10733.0, "dif_proy": "2191" }, "geometry": { "type": "Point", "coordinates": [ -65.895203855968191, -17.521297653323177 ] } },
{ "type": "Feature", "properties": { "Municipality": "San Borja", "Department": "Beni", "Province": "General José Ballivián", "pob_2012": 40864.0, "pob_2024": 45562.0, "diferencia": "4698", "incremento_porcentual": 11.5, "proy_2022": 42262.0, "dif_proy": "3300" }, "geometry": { "type": "Point", "coordinates": [ -66.755393968692218, -14.867650353986628 ] } },
{ "type": "Feature", "properties": { "Municipality": "San Buenaventura", "Department": "La Paz", "Province": "Abel Iturralde", "pob_2012": 8711.0, "pob_2024": 10115.0, "diferencia": "1404", "incremento_porcentual": 16.12, "proy_2022": 9708.0, "dif_proy": "407" }, "geometry": { "type": "Point", "coordinates": [ -67.744945835124611, -14.259109869238753 ] } },
{ "type": "Feature", "properties": { "Municipality": "San Carlos", "Department": "Santa Cruz", "Province": "Ichilo", "pob_2012": 20093.0, "pob_2024": 18998.0, "diferencia": "-1095", "incremento_porcentual": -5.45, "proy_2022": 24598.0, "dif_proy": "-5600" }, "geometry": { "type": "Point", "coordinates": [ -63.731523173819703, -17.406161636917101 ] } },
{ "type": "Feature", "properties": { "Municipality": "San Ignacio", "Department": "Santa Cruz", "Province": "Velasco", "pob_2012": 52362.0, "pob_2024": 67610.0, "diferencia": "15248", "incremento_porcentual": 29.12, "proy_2022": 68575.0, "dif_proy": "-965" }, "geometry": { "type": "Point", "coordinates": [ -60.949024347391592, -16.326495867010916 ] } },
{ "type": "Feature", "properties": { "Municipality": "San Ignacio", "Department": "Beni", "Province": "Moxos", "pob_2012": 21114.0, "pob_2024": 21578.0, "diferencia": "464", "incremento_porcentual": 2.2, "proy_2022": 21188.0, "dif_proy": "390" }, "geometry": { "type": "Point", "coordinates": [ -65.660796184374263, -14.989173039360749 ] } },
{ "type": "Feature", "properties": { "Municipality": "San Javier", "Department": "Santa Cruz", "Province": "Ñuflo De Chávez", "pob_2012": 13620.0, "pob_2024": 14897.0, "diferencia": "1277", "incremento_porcentual": 9.38, "proy_2022": 17600.0, "dif_proy": "-2703" }, "geometry": { "type": "Point", "coordinates": [ -62.505030378539395, -16.269674133812281 ] } },
{ "type": "Feature", "properties": { "Municipality": "San Javier", "Department": "Beni", "Province": "Cercado", "pob_2012": 5277.0, "pob_2024": 7654.0, "diferencia": "2377", "incremento_porcentual": 45.04, "proy_2022": 4043.0, "dif_proy": "3611" }, "geometry": { "type": "Point", "coordinates": [ -64.42544726040235, -14.422065647889076 ] } },
{ "type": "Feature", "properties": { "Municipality": "San Joaquín", "Department": "Beni", "Province": "Mamoré", "pob_2012": 6917.0, "pob_2024": 6851.0, "diferencia": "-066", "incremento_porcentual": -0.95, "proy_2022": 6069.0, "dif_proy": "782" }, "geometry": { "type": "Point", "coordinates": [ -64.670400825865883, -13.041203692667212 ] } },
{ "type": "Feature", "properties": { "Municipality": "San Joséde Chiquitos", "Department": "Santa Cruz", "Province": "Chiquitos", "pob_2012": 28922.0, "pob_2024": 40961.0, "diferencia": "12039", "incremento_porcentual": 41.63, "proy_2022": 32465.0, "dif_proy": "8496" }, "geometry": { "type": "Point", "coordinates": [ -60.736963893026321, -17.822792487898461 ] } },
{ "type": "Feature", "properties": { "Municipality": "San Juan de Yapacani", "Department": "Santa Cruz", "Province": "Ichilo", "pob_2012": 9191.0, "pob_2024": 10206.0, "diferencia": "1015", "incremento_porcentual": 11.04, "proy_2022": 10152.0, "dif_proy": "054" }, "geometry": { "type": "Point", "coordinates": [ -63.845757075566141, -17.288846794773072 ] } },
{ "type": "Feature", "properties": { "Municipality": "San Julián", "Department": "Santa Cruz", "Province": "Ñuflo De Chávez", "pob_2012": 47416.0, "pob_2024": 44635.0, "diferencia": "-2781", "incremento_porcentual": -5.87, "proy_2022": 55136.0, "dif_proy": "-10501" }, "geometry": { "type": "Point", "coordinates": [ -62.621399989804246, -16.905775932032597 ] } },
{ "type": "Feature", "properties": { "Municipality": "San Lorenzo", "Department": "Tarija", "Province": "Méndez", "pob_2012": 23863.0, "pob_2024": 30352.0, "diferencia": "6489", "incremento_porcentual": 27.19, "proy_2022": 25904.0, "dif_proy": "4448" }, "geometry": { "type": "Point", "coordinates": [ -64.747676707620016, -21.418398843996613 ] } },
{ "type": "Feature", "properties": { "Municipality": "San Lorenzo", "Department": "Pando", "Province": "Madre de Dios", "pob_2012": 7652.0, "pob_2024": 9203.0, "diferencia": "1551", "incremento_porcentual": 20.27, "proy_2022": 9358.0, "dif_proy": "-155" }, "geometry": { "type": "Point", "coordinates": [ -66.821160092613269, -11.596249937331947 ] } },
{ "type": "Feature", "properties": { "Municipality": "San Lucas", "Department": "Chuquisaca", "Province": "Nor Cinti", "pob_2012": 32520.0, "pob_2024": 26486.0, "diferencia": "-6034", "incremento_porcentual": -18.55, "proy_2022": 31389.0, "dif_proy": "-4903" }, "geometry": { "type": "Point", "coordinates": [ -64.899321419633253, -20.160733077742972 ] } },
{ "type": "Feature", "properties": { "Municipality": "San Matías", "Department": "Santa Cruz", "Province": "Angel Sandoval", "pob_2012": 14470.0, "pob_2024": 15336.0, "diferencia": "866", "incremento_porcentual": 5.98, "proy_2022": 17929.0, "dif_proy": "-2593" }, "geometry": { "type": "Point", "coordinates": [ -58.823336037140891, -17.255049240617602 ] } },
{ "type": "Feature", "properties": { "Municipality": "San Miguel de Velasco", "Department": "Santa Cruz", "Province": "Velasco", "pob_2012": 11327.0, "pob_2024": 15177.0, "diferencia": "3850", "incremento_porcentual": 33.99, "proy_2022": 13060.0, "dif_proy": "2117" }, "geometry": { "type": "Point", "coordinates": [ -61.272362639376645, -16.843004929487844 ] } },
{ "type": "Feature", "properties": { "Municipality": "San Pablo de Lipez", "Department": "Potosí", "Province": "Sur Lipez", "pob_2012": 3371.0, "pob_2024": 3136.0, "diferencia": "-235", "incremento_porcentual": -6.97, "proy_2022": 3351.0, "dif_proy": "-215" }, "geometry": { "type": "Point", "coordinates": [ -67.234174287064604, -22.177082327942216 ] } },
{ "type": "Feature", "properties": { "Municipality": "San Pedro", "Department": "Potosí", "Province": "Chárcas", "pob_2012": null, "pob_2024": null, "diferencia": null, "incremento_porcentual": null, "proy_2022": null, "dif_proy": null }, "geometry": { "type": "Point", "coordinates": [ -65.982015291138808, -18.269636362478199 ] } },
{ "type": "Feature", "properties": { "Municipality": "San Pedro", "Department": "Santa Cruz", "Province": "Obispo Santistéban", "pob_2012": 19103.0, "pob_2024": 15158.0, "diferencia": "-3945", "incremento_porcentual": -20.65, "proy_2022": 17441.0, "dif_proy": "-2283" }, "geometry": { "type": "Point", "coordinates": [ -63.484326639301145, -16.822643760058227 ] } },
{ "type": "Feature", "properties": { "Municipality": "San Pedro", "Department": "Pando", "Province": "Manuripi", "pob_2012": 2991.0, "pob_2024": 3239.0, "diferencia": "248", "incremento_porcentual": 8.29, "proy_2022": 1757.0, "dif_proy": "1482" }, "geometry": { "type": "Point", "coordinates": [ -66.58994527262908, -11.025449034962588 ] } },
{ "type": "Feature", "properties": { "Municipality": "San Pedro Cuarahuara", "Department": "La Paz", "Province": "Gualberto Villarroel", "pob_2012": 8858.0, "pob_2024": 9044.0, "diferencia": "186", "incremento_porcentual": 2.1, "proy_2022": 7245.0, "dif_proy": "1799" }, "geometry": { "type": "Point", "coordinates": [ -68.0486011458907, -17.653486067541586 ] } },
{ "type": "Feature", "properties": { "Municipality": "San Pedro de Quemes", "Department": "Potosí", "Province": "Nor Lipez", "pob_2012": 1060.0, "pob_2024": 1603.0, "diferencia": "543", "incremento_porcentual": 51.23, "proy_2022": 750.0, "dif_proy": "853" }, "geometry": { "type": "Point", "coordinates": [ -68.173805689980298, -21.000144251401217 ] } },
{ "type": "Feature", "properties": { "Municipality": "San Pedro de Tiquina", "Department": "La Paz", "Province": "Manco Kapac", "pob_2012": 6052.0, "pob_2024": 9097.0, "diferencia": "3045", "incremento_porcentual": 50.31, "proy_2022": 6099.0, "dif_proy": "2998" }, "geometry": { "type": "Point", "coordinates": [ -68.865974638228693, -16.231275865592263 ] } },
{ "type": "Feature", "properties": { "Municipality": "San Rafael", "Department": "Santa Cruz", "Province": "Velasco", "pob_2012": 6139.0, "pob_2024": 8786.0, "diferencia": "2647", "incremento_porcentual": 43.12, "proy_2022": 6512.0, "dif_proy": "2274" }, "geometry": { "type": "Point", "coordinates": [ -60.671422007903011, -16.786205426887047 ] } },
{ "type": "Feature", "properties": { "Municipality": "San Ramón", "Department": "Santa Cruz", "Province": "Ñuflo De Chávez", "pob_2012": 7490.0, "pob_2024": 8427.0, "diferencia": "937", "incremento_porcentual": 12.51, "proy_2022": 5294.0, "dif_proy": "3133" }, "geometry": { "type": "Point", "coordinates": [ -62.4953184552514, -16.608633414747942 ] } },
{ "type": "Feature", "properties": { "Municipality": "San Ramón", "Department": "Beni", "Province": "Mamoré", "pob_2012": 4955.0, "pob_2024": 5441.0, "diferencia": "486", "incremento_porcentual": 9.81, "proy_2022": 9803.0, "dif_proy": "-4362" }, "geometry": { "type": "Point", "coordinates": [ -64.611557888192181, -13.269230250075603 ] } },
{ "type": "Feature", "properties": { "Municipality": "Santa Ana de Yacuma", "Department": "Beni", "Province": "Yacuma", "pob_2012": 18439.0, "pob_2024": 18102.0, "diferencia": "-337", "incremento_porcentual": -1.83, "proy_2022": 18502.0, "dif_proy": "-400" }, "geometry": { "type": "Point", "coordinates": [ -65.426506389586322, -13.754850439193495 ] } },
{ "type": "Feature", "properties": { "Municipality": "Santa Cruz de la Sierra", "Department": "Santa Cruz", "Province": "Andrés Ibáñez", "pob_2012": 1454539.0, "pob_2024": 1606671.0, "diferencia": "152132", "incremento_porcentual": 10.46, "proy_2022": 1903398.0, "dif_proy": "-296727" }, "geometry": { "type": "Point", "coordinates": [ -63.18379333717737, -17.786871501433172 ] } },
{ "type": "Feature", "properties": { "Municipality": "Santa Rosa", "Department": "Santa Cruz", "Province": "Sara", "pob_2012": 19217.0, "pob_2024": 17984.0, "diferencia": "-1233", "incremento_porcentual": -6.42, "proy_2022": 10395.0, "dif_proy": "7589" }, "geometry": { "type": "Point", "coordinates": [ -63.601994587464475, -17.098811621806149 ] } },
{ "type": "Feature", "properties": { "Municipality": "Santa Rosa", "Department": "Beni", "Province": "General José Ballivián", "pob_2012": 9478.0, "pob_2024": 10910.0, "diferencia": "1432", "incremento_porcentual": 15.11, "proy_2022": 2741.0, "dif_proy": "8169" }, "geometry": { "type": "Point", "coordinates": [ -66.804542533296441, -14.066973463072914 ] } },
{ "type": "Feature", "properties": { "Municipality": "Santa Rosa", "Department": "Pando", "Province": "Abuná", "pob_2012": 2395.0, "pob_2024": 2855.0, "diferencia": "460", "incremento_porcentual": 19.21, "proy_2022": 19182.0, "dif_proy": "-16327" }, "geometry": { "type": "Point", "coordinates": [ -67.278817263321599, -10.731635496806572 ] } },
{ "type": "Feature", "properties": { "Municipality": "Callapa", "Department": "La Paz", "Province": "Pacajes", "pob_2012": 7289.0, "pob_2024": 7965.0, "diferencia": "676", "incremento_porcentual": 9.27, "proy_2022": 6610.0, "dif_proy": "1355" }, "geometry": { "type": "Point", "coordinates": [ -68.333950885299814, -17.475125680040744 ] } },
{ "type": "Feature", "properties": { "Municipality": "Huari", "Department": "Oruro", "Province": "Sebastián Pagador", "pob_2012": 13897.0, "pob_2024": 13439.0, "diferencia": "-458", "incremento_porcentual": -3.3, "proy_2022": 9899.0, "dif_proy": "3540" }, "geometry": { "type": "Point", "coordinates": [ -66.563685894606721, -19.164324628893461 ] } },
{ "type": "Feature", "properties": { "Municipality": "Santiago de Huata", "Department": "La Paz", "Province": "Omasuyos", "pob_2012": 8562.0, "pob_2024": 9258.0, "diferencia": "696", "incremento_porcentual": 8.13, "proy_2022": 7921.0, "dif_proy": "1337" }, "geometry": { "type": "Point", "coordinates": [ -68.835109300687279, -16.08625659308192 ] } },
{ "type": "Feature", "properties": { "Municipality": "Santiago de Machaca", "Department": "La Paz", "Province": "General José Manuel Pando", "pob_2012": 4593.0, "pob_2024": 6766.0, "diferencia": "2173", "incremento_porcentual": 47.31, "proy_2022": 4956.0, "dif_proy": "1810" }, "geometry": { "type": "Point", "coordinates": [ -69.270592770545463, -17.189523928410111 ] } },
{ "type": "Feature", "properties": { "Municipality": "Santivañez", "Department": "Cochabamba", "Province": "Capinota", "pob_2012": 6527.0, "pob_2024": 7868.0, "diferencia": "1341", "incremento_porcentual": 20.55, "proy_2022": 6722.0, "dif_proy": "1146" }, "geometry": { "type": "Point", "coordinates": [ -66.218048932865614, -17.573590611740499 ] } },
{ "type": "Feature", "properties": { "Municipality": "Santos Mercado", "Department": "Pando", "Province": "Federico Román", "pob_2012": 2165.0, "pob_2024": 2184.0, "diferencia": "019", "incremento_porcentual": 0.88, "proy_2022": 2693.0, "dif_proy": "-509" }, "geometry": { "type": "Point", "coordinates": [ -66.13641849110077, -10.153388901117914 ] } },
{ "type": "Feature", "properties": { "Municipality": "Quillacas", "Department": "Oruro", "Province": "Abaroa", "pob_2012": 4051.0, "pob_2024": 5105.0, "diferencia": "1054", "incremento_porcentual": 26.02, "proy_2022": 3871.0, "dif_proy": "1234" }, "geometry": { "type": "Point", "coordinates": [ -66.813467602129705, -19.31933278773737 ] } },
{ "type": "Feature", "properties": { "Municipality": "Sapahaqui", "Department": "La Paz", "Province": "Loayza", "pob_2012": 12484.0, "pob_2024": 16420.0, "diferencia": "3936", "incremento_porcentual": 31.53, "proy_2022": 10185.0, "dif_proy": "6235" }, "geometry": { "type": "Point", "coordinates": [ -67.836019704250319, -16.953522467758582 ] } },
{ "type": "Feature", "properties": { "Municipality": "Sena", "Department": "Pando", "Province": "Madre de Dios", "pob_2012": 8258.0, "pob_2024": 10264.0, "diferencia": "2006", "incremento_porcentual": 24.29, "proy_2022": 8213.0, "dif_proy": "2051" }, "geometry": { "type": "Point", "coordinates": [ -67.359220669452341, -11.855493376305583 ] } },
{ "type": "Feature", "properties": { "Municipality": "Shinahota", "Department": "Cochabamba", "Province": "Tiraque", "pob_2012": 20841.0, "pob_2024": 27067.0, "diferencia": "6226", "incremento_porcentual": 29.87, "proy_2022": 26283.0, "dif_proy": "784" }, "geometry": { "type": "Point", "coordinates": [ -65.24563640502447, -16.993607234610572 ] } },
{ "type": "Feature", "properties": { "Municipality": "Sica Sica", "Department": "La Paz", "Province": "Aroma", "pob_2012": 31312.0, "pob_2024": 33546.0, "diferencia": "2234", "incremento_porcentual": 7.13, "proy_2022": 20598.0, "dif_proy": "12948" }, "geometry": { "type": "Point", "coordinates": [ -67.619158817319942, -17.374471881669223 ] } },
{ "type": "Feature", "properties": { "Municipality": "Sicaya", "Department": "Cochabamba", "Province": "Capinota", "pob_2012": 3740.0, "pob_2024": 3949.0, "diferencia": "209", "incremento_porcentual": 5.59, "proy_2022": 3895.0, "dif_proy": "054" }, "geometry": { "type": "Point", "coordinates": [ -66.341644142796298, -17.790989407970201 ] } },
{ "type": "Feature", "properties": { "Municipality": "Sipe Sipe", "Department": "Cochabamba", "Province": "Quillacollo", "pob_2012": 41571.0, "pob_2024": 55601.0, "diferencia": "14030", "incremento_porcentual": 33.75, "proy_2022": 48275.0, "dif_proy": "7326" }, "geometry": { "type": "Point", "coordinates": [ -66.342994828076371, -17.452137740710416 ] } },
{ "type": "Feature", "properties": { "Municipality": "Sopachuy", "Department": "Chuquisaca", "Province": "Tomina", "pob_2012": 7312.0, "pob_2024": 6886.0, "diferencia": "-426", "incremento_porcentual": -5.83, "proy_2022": 6067.0, "dif_proy": "819" }, "geometry": { "type": "Point", "coordinates": [ -64.535207991680664, -19.462208740654368 ] } },
{ "type": "Feature", "properties": { "Municipality": "Sorata", "Department": "La Paz", "Province": "Larecaja", "pob_2012": 23512.0, "pob_2024": 30020.0, "diferencia": "6508", "incremento_porcentual": 27.68, "proy_2022": 18043.0, "dif_proy": "11977" }, "geometry": { "type": "Point", "coordinates": [ -68.649042704951427, -15.770371911316412 ] } },
{ "type": "Feature", "properties": { "Municipality": "Sucre", "Department": "Chuquisaca", "Province": "Oropeza", "pob_2012": 261201.0, "pob_2024": 296125.0, "diferencia": "34924", "incremento_porcentual": 13.37, "proy_2022": 360544.0, "dif_proy": "-64419" }, "geometry": { "type": "Point", "coordinates": [ -65.26182336722394, -19.0483702474897 ] } },
{ "type": "Feature", "properties": { "Municipality": "Tacachi", "Department": "Cochabamba", "Province": "Punata", "pob_2012": 1303.0, "pob_2024": 1276.0, "diferencia": "-027", "incremento_porcentual": -2.07, "proy_2022": 634.0, "dif_proy": "642" }, "geometry": { "type": "Point", "coordinates": [ -65.805426728973615, -17.64064727069438 ] } },
{ "type": "Feature", "properties": { "Municipality": "Tacacoma", "Department": "La Paz", "Province": "Larecaja", "pob_2012": 8182.0, "pob_2024": 9705.0, "diferencia": "1523", "incremento_porcentual": 18.61, "proy_2022": 8120.0, "dif_proy": "1585" }, "geometry": { "type": "Point", "coordinates": [ -68.523013716695687, -15.392451726164264 ] } },
{ "type": "Feature", "properties": { "Municipality": "Tacobamba", "Department": "Potosí", "Province": "Cornelio Saavedra", "pob_2012": 11835.0, "pob_2024": 14208.0, "diferencia": "2373", "incremento_porcentual": 20.05, "proy_2022": 9384.0, "dif_proy": "4824" }, "geometry": { "type": "Point", "coordinates": [ -65.554039704261342, -19.213248079479332 ] } },
{ "type": "Feature", "properties": { "Municipality": "Tacopaya", "Department": "Cochabamba", "Province": "Arque", "pob_2012": 10253.0, "pob_2024": 10549.0, "diferencia": "296", "incremento_porcentual": 2.89, "proy_2022": 7522.0, "dif_proy": "3027" }, "geometry": { "type": "Point", "coordinates": [ -66.625857824781463, -17.826521007529855 ] } },
{ "type": "Feature", "properties": { "Municipality": "Tahua", "Department": "Potosí", "Province": "Daniel Campos", "pob_2012": 1700.0, "pob_2024": 1561.0, "diferencia": "-139", "incremento_porcentual": -8.18, "proy_2022": 1710.0, "dif_proy": "-149" }, "geometry": { "type": "Point", "coordinates": [ -67.943904122125062, -20.287705105563511 ] } },
{ "type": "Feature", "properties": { "Municipality": "Tapacarí", "Department": "Cochabamba", "Province": "Tapacarí", "pob_2012": 24625.0, "pob_2024": 24534.0, "diferencia": "-091", "incremento_porcentual": -0.37, "proy_2022": 22769.0, "dif_proy": "1765" }, "geometry": { "type": "Point", "coordinates": [ -66.619857328355707, -17.518027515124395 ] } },
{ "type": "Feature", "properties": { "Municipality": "Tarabuco", "Department": "Chuquisaca", "Province": "Yamparáez", "pob_2012": 16944.0, "pob_2024": 13251.0, "diferencia": "-3693", "incremento_porcentual": -21.8, "proy_2022": 15342.0, "dif_proy": "-2091" }, "geometry": { "type": "Point", "coordinates": [ -64.916120183938006, -19.182333521538485 ] } },
{ "type": "Feature", "properties": { "Municipality": "Taraco", "Department": "La Paz", "Province": "Ingavi", "pob_2012": 6603.0, "pob_2024": 7511.0, "diferencia": "908", "incremento_porcentual": 13.75, "proy_2022": 6502.0, "dif_proy": "1009" }, "geometry": { "type": "Point", "coordinates": [ -68.853561538932979, -16.462596197512475 ] } },
{ "type": "Feature", "properties": { "Municipality": "Tarata", "Department": "Cochabamba", "Province": "Esteban Arze", "pob_2012": 8242.0, "pob_2024": 11235.0, "diferencia": "2993", "incremento_porcentual": 36.31, "proy_2022": 10033.0, "dif_proy": "1202" }, "geometry": { "type": "Point", "coordinates": [ -66.024113143233251, -17.613065431839001 ] } },
{ "type": "Feature", "properties": { "Municipality": "Tarija", "Department": "Tarija", "Province": "Cercado", "pob_2012": 205375.0, "pob_2024": 238942.0, "diferencia": "33567", "incremento_porcentual": 16.34, "proy_2022": 272692.0, "dif_proy": "-33750" }, "geometry": { "type": "Point", "coordinates": [ -64.7224623414821, -21.537813328150595 ] } },
{ "type": "Feature", "properties": { "Municipality": "Tarvita", "Department": "Chuquisaca", "Province": "Azurduy", "pob_2012": 14261.0, "pob_2024": 16470.0, "diferencia": "2209", "incremento_porcentual": 15.49, "proy_2022": 13876.0, "dif_proy": "2594" }, "geometry": { "type": "Point", "coordinates": [ -64.561808747077436, -19.772148975096833 ] } },
{ "type": "Feature", "properties": { "Municipality": "Teoponte", "Department": "La Paz", "Province": "Larecaja", "pob_2012": 9349.0, "pob_2024": 13469.0, "diferencia": "4120", "incremento_porcentual": 44.07, "proy_2022": 8617.0, "dif_proy": "4852" }, "geometry": { "type": "Point", "coordinates": [ -67.687235549835236, -15.407381375994619 ] } },