{
"type": "FeatureCollection",
"name": "datos_censos2",
"crs": { "type": "name", "properties": { "name": "urn:ogc:def:crs:OGC:1.3:CRS84" } },
"features": [
{ "type": "Feature", "properties": { "Municipality": "Acasio", "Department": "Potosí", "Province": "General Bilbao", "pob_2012": 6161.0, "pob_2024": 4434.0, "diferencia": "-1727", "incremento_porcentual": -28.03 }, "geometry": { "type": "Point", "coordinates": [ -66.014455125136948, -18.049961913445809 ] } },
{ "type": "Feature", "properties": { "Municipality": "Achacachi", "Department": "La Paz", "Province": "Omasuyos", "pob_2012": 46058.0, "pob_2024": 47064.0, "diferencia": "1006", "incremento_porcentual": 2.18 }, "geometry": { "type": "Point", "coordinates": [ -68.66346541394951, -16.016726600199082 ] } },
{ "type": "Feature", "properties": { "Municipality": "Achocalla", "Department": "La Paz", "Province": "Murillo", "pob_2012": 22179.0, "pob_2024": 46068.0, "diferencia": "23889", "incremento_porcentual": 107.71 }, "geometry": { "type": "Point", "coordinates": [ -68.125270813228852, -16.662346628004535 ] } },
{ "type": "Feature", "properties": { "Municipality": "Aiquile", "Department": "Cochabamba", "Province": "Campero", "pob_2012": 23267.0, "pob_2024": 23000.0, "diferencia": "-267", "incremento_porcentual": -1.15 }, "geometry": { "type": "Point", "coordinates": [ -65.103804877249786, -18.323307106835617 ] } },
{ "type": "Feature", "properties": { "Municipality": "Alalay", "Department": "Cochabamba", "Province": "Mizque", "pob_2012": 3447.0, "pob_2024": 3461.0, "diferencia": "014", "incremento_porcentual": 0.41 }, "geometry": { "type": "Point", "coordinates": [ -65.630008390872291, -17.773272880584653 ] } },
{ "type": "Feature", "properties": { "Municipality": "Villa Alcalá", "Department": "Chuquisaca", "Province": "Tomina", "pob_2012": 4902.0, "pob_2024": 3752.0, "diferencia": "-1150", "incremento_porcentual": -23.46 }, "geometry": { "type": "Point", "coordinates": [ -64.37387350701384, -19.432094855995008 ] } },
{ "type": "Feature", "properties": { "Municipality": "Alto Beni", "Department": "La Paz", "Province": "Caranavi", "pob_2012": 11194.0, "pob_2024": 10499.0, "diferencia": "-695", "incremento_porcentual": -6.21 }, "geometry": { "type": "Point", "coordinates": [ -67.389582090797603, -15.605529039684289 ] } },
{ "type": "Feature", "properties": { "Municipality": "Santiago de Andamarca", "Department": "Oruro", "Province": "Sur Carangas", "pob_2012": 5216.0, "pob_2024": 6300.0, "diferencia": "1084", "incremento_porcentual": 20.78 }, "geometry": { "type": "Point", "coordinates": [ -67.381086302533831, -18.892559230832131 ] } },
{ "type": "Feature", "properties": { "Municipality": "Antequera", "Department": "Oruro", "Province": "Poopó", "pob_2012": 3264.0, "pob_2024": 3614.0, "diferencia": "350", "incremento_porcentual": 10.72 }, "geometry": { "type": "Point", "coordinates": [ -66.775474947735475, -18.524940527675557 ] } },
{ "type": "Feature", "properties": { "Municipality": "Anzaldo", "Department": "Cochabamba", "Province": "Esteban Arze", "pob_2012": 7192.0, "pob_2024": 7322.0, "diferencia": "130", "incremento_porcentual": 1.81 }, "geometry": { "type": "Point", "coordinates": [ -65.916691978805346, -17.843677986686561 ] } },
{ "type": "Feature", "properties": { "Municipality": "Apolo", "Department": "La Paz", "Province": "Franz Tamayo", "pob_2012": 20308.0, "pob_2024": 19047.0, "diferencia": "-1261", "incremento_porcentual": -6.21 }, "geometry": { "type": "Point", "coordinates": [ -68.232676695355153, -14.658538660156264 ] } },
{ "type": "Feature", "properties": { "Municipality": "Arampampa", "Department": "Potosí", "Province": "General Bilbao", "pob_2012": 4170.0, "pob_2024": 3623.0, "diferencia": "-547", "incremento_porcentual": -13.12 }, "geometry": { "type": "Point", "coordinates": [ -66.12593229361363, -17.945273500201321 ] } },
{ "type": "Feature", "properties": { "Municipality": "Arani", "Department": "Cochabamba", "Province": "Arani", "pob_2012": 9504.0, "pob_2024": 11411.0, "diferencia": "1907", "incremento_porcentual": 20.07 }, "geometry": { "type": "Point", "coordinates": [ -65.726624151367943, -17.592724499479299 ] } },
{ "type": "Feature", "properties": { "Municipality": "Arbieto", "Department": "Cochabamba", "Province": "Esteban Arze", "pob_2012": 17445.0, "pob_2024": 30454.0, "diferencia": "13009", "incremento_porcentual": 74.57 }, "geometry": { "type": "Point", "coordinates": [ -66.065000157657721, -17.558274575344466 ] } },
{ "type": "Feature", "properties": { "Municipality": "Arque", "Department": "Cochabamba", "Province": "Arque", "pob_2012": 10597.0, "pob_2024": 10635.0, "diferencia": "038", "incremento_porcentual": 0.36 }, "geometry": { "type": "Point", "coordinates": [ -66.416735501700984, -17.825780592259381 ] } },
{ "type": "Feature", "properties": { "Municipality": "Ascensión de Guarayos", "Department": "Santa Cruz", "Province": "Guarayos", "pob_2012": 27070.0, "pob_2024": 34002.0, "diferencia": "6932", "incremento_porcentual": 25.61 }, "geometry": { "type": "Point", "coordinates": [ -63.430822972192097, -15.343949424684595 ] } },
{ "type": "Feature", "properties": { "Municipality": "Atocha", "Department": "Potosí", "Province": "Sur Chichas", "pob_2012": 11234.0, "pob_2024": 9364.0, "diferencia": "-1870", "incremento_porcentual": -16.65 }, "geometry": { "type": "Point", "coordinates": [ -66.169894928657826, -21.070374623160212 ] } },
{ "type": "Feature", "properties": { "Municipality": "Aucapata", "Department": "La Paz", "Province": "Muñecas", "pob_2012": 5495.0, "pob_2024": 6720.0, "diferencia": "1225", "incremento_porcentual": 22.29 }, "geometry": { "type": "Point", "coordinates": [ -68.699437048323617, -15.438130672057053 ] } },
{ "type": "Feature", "properties": { "Municipality": "Ayata", "Department": "La Paz", "Province": "Muñecas", "pob_2012": 8410.0, "pob_2024": 8957.0, "diferencia": "547", "incremento_porcentual": 6.5 }, "geometry": { "type": "Point", "coordinates": [ -68.710992880239317, -15.320011990684126 ] } },
{ "type": "Feature", "properties": { "Municipality": "Ayo Ayo", "Department": "La Paz", "Province": "Aroma", "pob_2012": 7798.0, "pob_2024": 11251.0, "diferencia": "3453", "incremento_porcentual": 44.28 }, "geometry": { "type": "Point", "coordinates": [ -68.019668170739735, -17.076683852707085 ] } },
{ "type": "Feature", "properties": { "Municipality": "Independencia", "Department": "Cochabamba", "Province": "Ayopaya", "pob_2012": 23658.0, "pob_2024": 21717.0, "diferencia": "-1941", "incremento_porcentual": -8.2 }, "geometry": { "type": "Point", "coordinates": [ -66.805273011644857, -17.143875555243682 ] } },
{ "type": "Feature", "properties": { "Municipality": "Azurduy", "Department": "Chuquisaca", "Province": "Azurduy", "pob_2012": 10652.0, "pob_2024": 7861.0, "diferencia": "-2791", "incremento_porcentual": -26.2 }, "geometry": { "type": "Point", "coordinates": [ -64.43290785438559, -20.181346905479369 ] } },
{ "type": "Feature", "properties": { "Municipality": "Batallas", "Department": "La Paz", "Province": "Los Andes", "pob_2012": 17426.0, "pob_2024": 20503.0, "diferencia": "3077", "incremento_porcentual": 17.66 }, "geometry": { "type": "Point", "coordinates": [ -68.433610667571259, -16.164311787508225 ] } },
{ "type": "Feature", "properties": { "Municipality": "Baures", "Department": "Beni", "Province": "Iténez", "pob_2012": 5965.0, "pob_2024": 6564.0, "diferencia": "599", "incremento_porcentual": 10.04 }, "geometry": { "type": "Point", "coordinates": [ -62.875484678593963, -13.62513942529687 ] } },
{ "type": "Feature", "properties": { "Municipality": "Belén de Andamarca", "Department": "Oruro", "Province": "Sur Carangas", "pob_2012": 2016.0, "pob_2024": 2996.0, "diferencia": "980", "incremento_porcentual": 48.61 }, "geometry": { "type": "Point", "coordinates": [ -67.749802264221614, -18.892051378037415 ] } },
{ "type": "Feature", "properties": { "Municipality": "Bella Flor", "Department": "Pando", "Province": "Nicolás Suárez", "pob_2012": 3909.0, "pob_2024": 3632.0, "diferencia": "-277", "incremento_porcentual": -7.09 }, "geometry": { "type": "Point", "coordinates": [ -67.931509045600592, -10.932069375934407 ] } },
{ "type": "Feature", "properties": { "Municipality": "Bermejo", "Department": "Tarija", "Province": "Arce", "pob_2012": 34505.0, "pob_2024": 36967.0, "diferencia": "2462", "incremento_porcentual": 7.14 }, "geometry": { "type": "Point", "coordinates": [ -64.329487396705133, -22.673128239287458 ] } },
{ "type": "Feature", "properties": { "Municipality": "Betanzos", "Department": "Potosí", "Province": "Cornelio Saavedra", "pob_2012": 33922.0, "pob_2024": 31772.0, "diferencia": "-2150", "incremento_porcentual": -6.34 }, "geometry": { "type": "Point", "coordinates": [ -65.227592151424773, -19.458224880231302 ] } },
{ "type": "Feature", "properties": { "Municipality": "Bolívar", "Department": "Cochabamba", "Province": "Bolivar", "pob_2012": 7279.0, "pob_2024": 8197.0, "diferencia": "918", "incremento_porcentual": 12.61 }, "geometry": { "type": "Point", "coordinates": [ -66.644573269726962, -18.015604138829488 ] } },
{ "type": "Feature", "properties": { "Municipality": "Bolpebra", "Department": "Pando", "Province": "Nicolás Suárez", "pob_2012": 2173.0, "pob_2024": 2390.0, "diferencia": "217", "incremento_porcentual": 9.99 }, "geometry": { "type": "Point", "coordinates": [ -69.226291492042122, -11.169955381585014 ] } },
{ "type": "Feature", "properties": { "Municipality": "Boyuibe", "Department": "Santa Cruz", "Province": "Cordillera", "pob_2012": 5087.0, "pob_2024": 5603.0, "diferencia": "516", "incremento_porcentual": 10.14 }, "geometry": { "type": "Point", "coordinates": [ -63.076204908763927, -20.338845698708919 ] } },
{ "type": "Feature", "properties": { "Municipality": "Buena Vista", "Department": "Santa Cruz", "Province": "Ichilo", "pob_2012": 12879.0, "pob_2024": 13586.0, "diferencia": "707", "incremento_porcentual": 5.49 }, "geometry": { "type": "Point", "coordinates": [ -63.756010975755146, -17.697815543494528 ] } },
{ "type": "Feature", "properties": { "Municipality": "Cabezas", "Department": "Santa Cruz", "Province": "Cordillera", "pob_2012": 26434.0, "pob_2024": 31160.0, "diferencia": "4726", "incremento_porcentual": 17.88 }, "geometry": { "type": "Point", "coordinates": [ -63.268486444284363, -18.463873782409337 ] } },
{ "type": "Feature", "properties": { "Municipality": "Cairoma", "Department": "La Paz", "Province": "Loayza", "pob_2012": 11355.0, "pob_2024": 13657.0, "diferencia": "2302", "incremento_porcentual": 20.27 }, "geometry": { "type": "Point", "coordinates": [ -67.576889849279851, -16.845820700920303 ] } },
{ "type": "Feature", "properties": { "Municipality": "Caiza D", "Department": "Potosí", "Province": "José María Linares", "pob_2012": 12067.0, "pob_2024": 12891.0, "diferencia": "824", "incremento_porcentual": 6.83 }, "geometry": { "type": "Point", "coordinates": [ -65.653633049920217, -20.011275719880199 ] } },
{ "type": "Feature", "properties": { "Municipality": "Cajuata", "Department": "La Paz", "Province": "Inquisivi", "pob_2012": 10458.0, "pob_2024": 15485.0, "diferencia": "5027", "incremento_porcentual": 48.07 }, "geometry": { "type": "Point", "coordinates": [ -67.247452868935994, -16.637524248228985 ] } },
{ "type": "Feature", "properties": { "Municipality": "Calacoto", "Department": "La Paz", "Province": "Pacajes", "pob_2012": 9879.0, "pob_2024": 12057.0, "diferencia": "2178", "incremento_porcentual": 22.05 }, "geometry": { "type": "Point", "coordinates": [ -68.772259755411653, -17.562432370459067 ] } },
{ "type": "Feature", "properties": { "Municipality": "Calamarca", "Department": "La Paz", "Province": "Aroma", "pob_2012": 12413.0, "pob_2024": 15279.0, "diferencia": "2866", "incremento_porcentual": 23.09 }, "geometry": { "type": "Point", "coordinates": [ -68.112472666651357, -16.890443149284781 ] } },
{ "type": "Feature", "properties": { "Municipality": "Camargo", "Department": "Chuquisaca", "Province": "Nor Cinti", "pob_2012": 15644.0, "pob_2024": 14712.0, "diferencia": "-932", "incremento_porcentual": -5.96 }, "geometry": { "type": "Point", "coordinates": [ -65.156022655587591, -20.60255412340198 ] } },
{ "type": "Feature", "properties": { "Municipality": "Camiri", "Department": "Santa Cruz", "Province": "Cordillera", "pob_2012": 33838.0, "pob_2024": 32656.0, "diferencia": "-1182", "incremento_porcentual": -3.49 }, "geometry": { "type": "Point", "coordinates": [ -63.487869847955473, -20.034761245932135 ] } },
{ "type": "Feature", "properties": { "Municipality": "Capinota", "Department": "Cochabamba", "Province": "Capinota", "pob_2012": 19477.0, "pob_2024": 19291.0, "diferencia": "-186", "incremento_porcentual": -0.95 }, "geometry": { "type": "Point", "coordinates": [ -66.226829516783056, -17.777604120003986 ] } },
{ "type": "Feature", "properties": { "Municipality": "Caquiaviri", "Department": "La Paz", "Province": "Pacajes", "pob_2012": 14687.0, "pob_2024": 15464.0, "diferencia": "777", "incremento_porcentual": 5.29 }, "geometry": { "type": "Point", "coordinates": [ -68.818074401442345, -17.085361247144228 ] } },
{ "type": "Feature", "properties": { "Municipality": "Caracollo", "Department": "Oruro", "Province": "Cercado", "pob_2012": 23115.0, "pob_2024": 23068.0, "diferencia": "-047", "incremento_porcentual": -0.2 }, "geometry": { "type": "Point", "coordinates": [ -67.292268035325634, -17.691432106384571 ] } },
{ "type": "Feature", "properties": { "Municipality": "Caranavi", "Department": "La Paz", "Province": "Caranavi", "pob_2012": 50330.0, "pob_2024": 59034.0, "diferencia": "8704", "incremento_porcentual": 17.29 }, "geometry": { "type": "Point", "coordinates": [ -67.487924880073194, -15.844864490797178 ] } },
{ "type": "Feature", "properties": { "Municipality": "Carangas", "Department": "Oruro", "Province": "Mejillones", "pob_2012": 840.0, "pob_2024": 1130.0, "diferencia": "290", "incremento_porcentual": 34.52 }, "geometry": { "type": "Point", "coordinates": [ -68.665444765043745, -18.901569463555639 ] } },
{ "type": "Feature", "properties": { "Municipality": "Caraparí", "Department": "Tarija", "Province": "Gran Chaco", "pob_2012": 15366.0, "pob_2024": 15650.0, "diferencia": "284", "incremento_porcentual": 1.85 }, "geometry": { "type": "Point", "coordinates": [ -63.898919538998797, -21.815964316449215 ] } },
{ "type": "Feature", "properties": { "Municipality": "Caripuyo", "Department": "Potosí", "Province": "Alonso de Ibáñez", "pob_2012": 8704.0, "pob_2024": 8427.0, "diferencia": "-277", "incremento_porcentual": -3.18 }, "geometry": { "type": "Point", "coordinates": [ -66.593305285278433, -18.180199243743647 ] } },
{ "type": "Feature", "properties": { "Municipality": "Catacora", "Department": "La Paz", "Province": "General José Manuel Pando", "pob_2012": 2881.0, "pob_2024": 5326.0, "diferencia": "2445", "incremento_porcentual": 84.87 }, "geometry": { "type": "Point", "coordinates": [ -69.480493562312716, -17.252724390339427 ] } },
{ "type": "Feature", "properties": { "Municipality": "Chacarilla", "Department": "La Paz", "Province": "Gualberto Villarroel", "pob_2012": 2004.0, "pob_2024": 2031.0, "diferencia": "027", "incremento_porcentual": 1.35 }, "geometry": { "type": "Point", "coordinates": [ -68.16998336735918, -17.548600738923714 ] } },
{ "type": "Feature", "properties": { "Municipality": "Challapata", "Department": "Oruro", "Province": "Abaroa", "pob_2012": 28304.0, "pob_2024": 35339.0, "diferencia": "7035", "incremento_porcentual": 24.86 }, "geometry": { "type": "Point", "coordinates": [ -66.552695888303646, -18.89054278641926 ] } },
{ "type": "Feature", "properties": { "Municipality": "Chaquí", "Department": "Potosí", "Province": "Cornelio Saavedra", "pob_2012": 9910.0, "pob_2024": 9262.0, "diferencia": "-648", "incremento_porcentual": -6.54 }, "geometry": { "type": "Point", "coordinates": [ -65.546049548686213, -19.624991747025597 ] } },
{ "type": "Feature", "properties": { "Municipality": "Charagua", "Department": "Santa Cruz", "Province": "Cordillera", "pob_2012": 32186.0, "pob_2024": 39262.0, "diferencia": "7076", "incremento_porcentual": 21.98 }, "geometry": { "type": "Point", "coordinates": [ -61.600971081819466, -19.090487671147056 ] } },
{ "type": "Feature", "properties": { "Municipality": "Charaña", "Department": "La Paz", "Province": "Pacajes", "pob_2012": 3246.0, "pob_2024": 4124.0, "diferencia": "878", "incremento_porcentual": 27.05 }, "geometry": { "type": "Point", "coordinates": [ -69.156992173881918, -17.659153441965991 ] } },
{ "type": "Feature", "properties": { "Municipality": "Charazani", "Department": "La Paz", "Province": "Bautista Saavedra", "pob_2012": 13023.0, "pob_2024": 15854.0, "diferencia": "2831", "incremento_porcentual": 21.74 }, "geometry": { "type": "Point", "coordinates": [ -68.773747731013529, -15.096564263223597 ] } },
{ "type": "Feature", "properties": { "Municipality": "Chayanta", "Department": "Potosí", "Province": "Rafael Bustillo", "pob_2012": 16129.0, "pob_2024": 16008.0, "diferencia": "-121", "incremento_porcentual": -0.75 }, "geometry": { "type": "Point", "coordinates": [ -66.350844598316286, -18.414350013185 ] } },
{ "type": "Feature", "properties": { "Municipality": "Chimoré", "Department": "Cochabamba", "Province": "Carrasco", "pob_2012": 21736.0, "pob_2024": 27374.0, "diferencia": "5638", "incremento_porcentual": 25.94 }, "geometry": { "type": "Point", "coordinates": [ -64.911369502343078, -16.558574855308002 ] } },
{ "type": "Feature", "properties": { "Municipality": "Chipaya", "Department": "Oruro", "Province": "Sabaya", "pob_2012": 2003.0, "pob_2024": 2366.0, "diferencia": "363", "incremento_porcentual": 18.12 }, "geometry": { "type": "Point", "coordinates": [ -68.047791409060522, -19.062669891542203 ] } },
{ "type": "Feature", "properties": { "Municipality": "Choque Cota", "Department": "Oruro", "Province": "Carangas", "pob_2012": 1850.0, "pob_2024": 2980.0, "diferencia": "1130", "incremento_porcentual": 61.08 }, "geometry": { "type": "Point", "coordinates": [ -67.954954284836163, -18.122091982262663 ] } },
{ "type": "Feature", "properties": { "Municipality": "Chua Cocani", "Department": "La Paz", "Province": "Omasuyos", "pob_2012": 5003.0, "pob_2024": 7183.0, "diferencia": "2180", "incremento_porcentual": 43.57 }, "geometry": { "type": "Point", "coordinates": [ -68.751736282337689, -16.158324748133062 ] } },
{ "type": "Feature", "properties": { "Municipality": "Chulumani", "Department": "La Paz", "Province": "Sud Yungas", "pob_2012": 17823.0, "pob_2024": 18278.0, "diferencia": "455", "incremento_porcentual": 2.55 }, "geometry": { "type": "Point", "coordinates": [ -67.537567953545334, -16.389047343408098 ] } },
{ "type": "Feature", "properties": { "Municipality": "Chuma", "Department": "La Paz", "Province": "Muñecas", "pob_2012": 11473.0, "pob_2024": 17671.0, "diferencia": "6198", "incremento_porcentual": 54.02 }, "geometry": { "type": "Point", "coordinates": [ -68.865669466158337, -15.593162566440204 ] } },
{ "type": "Feature", "properties": { "Municipality": "Chuquihuta", "Department": "Potosí", "Province": "Rafael Bustillo", "pob_2012": 8019.0, "pob_2024": 8170.0, "diferencia": "151", "incremento_porcentual": 1.88 }, "geometry": { "type": "Point", "coordinates": [ -66.353346689634748, -18.632207179647828 ] } },
{ "type": "Feature", "properties": { "Municipality": "Ckochas", "Department": "Potosí", "Province": "José María Linares", "pob_2012": 15812.0, "pob_2024": 14301.0, "diferencia": "-1511", "incremento_porcentual": -9.56 }, "geometry": { "type": "Point", "coordinates": [ -65.022115668430814, -19.742126835071939 ] } },
{ "type": "Feature", "properties": { "Municipality": "Cliza", "Department": "Cochabamba", "Province": "Germán Jordán", "pob_2012": 21899.0, "pob_2024": 20877.0, "diferencia": "-1022", "incremento_porcentual": -4.67 }, "geometry": { "type": "Point", "coordinates": [ -65.936552826954625, -17.581921029149413 ] } },
{ "type": "Feature", "properties": { "Municipality": "Cobija", "Department": "Pando", "Province": "Nicolás Suárez", "pob_2012": 46267.0, "pob_2024": 54386.0, "diferencia": "8119", "incremento_porcentual": 17.55 }, "geometry": { "type": "Point", "coordinates": [ -68.87189225520261, -11.079129471887914 ] } },
{ "type": "Feature", "properties": { "Municipality": "Cocapata", "Department": "Cochabamba", "Province": "Ayopaya", "pob_2012": 18076.0, "pob_2024": 19467.0, "diferencia": "1391", "incremento_porcentual": 7.7 }, "geometry": { "type": "Point", "coordinates": [ -66.552206660870155, -16.489093101240499 ] } },
{ "type": "Feature", "properties": { "Municipality": "Cochabamba", "Department": "Cochabamba", "Province": "Cercado", "pob_2012": 632013.0, "pob_2024": 661484.0, "diferencia": "29471", "incremento_porcentual": 4.66 }, "geometry": { "type": "Point", "coordinates": [ -66.168689847477722, -17.42509213879222 ] } },
{ "type": "Feature", "properties": { "Municipality": "Coipasa", "Department": "Oruro", "Province": "Sabaya", "pob_2012": 903.0, "pob_2024": 1405.0, "diferencia": "502", "incremento_porcentual": 55.59 }, "geometry": { "type": "Point", "coordinates": [ -68.312284602089122, -19.327196586506656 ] } },
{ "type": "Feature", "properties": { "Municipality": "Colcapirhua", "Department": "Cochabamba", "Province": "Quillacollo", "pob_2012": 51990.0, "pob_2024": 66235.0, "diferencia": "14245", "incremento_porcentual": 27.4 }, "geometry": { "type": "Point", "coordinates": [ -66.232528747964594, -17.390655438513861 ] } },
{ "type": "Feature", "properties": { "Municipality": "Colcha K", "Department": "Potosí", "Province": "Nor Lipez", "pob_2012": 12997.0, "pob_2024": 12638.0, "diferencia": "-359", "incremento_porcentual": -2.76 }, "geometry": { "type": "Point", "coordinates": [ -67.31419965133918, -21.204410269440679 ] } },
{ "type": "Feature", "properties": { "Municipality": "Collana", "Department": "La Paz", "Province": "Aroma", "pob_2012": 5042.0, "pob_2024": 5525.0, "diferencia": "483", "incremento_porcentual": 9.58 }, "geometry": { "type": "Point", "coordinates": [ -68.301314524028172, -16.903798640487462 ] } },
{ "type": "Feature", "properties": { "Municipality": "Colomi", "Department": "Cochabamba", "Province": "Chapare", "pob_2012": 19285.0, "pob_2024": 19318.0, "diferencia": "033", "incremento_porcentual": 0.17 }, "geometry": { "type": "Point", "coordinates": [ -65.920589107237944, -17.233147098810441 ] } },
{ "type": "Feature", "properties": { "Municipality": "Colpa Belgica", "Department": "Santa Cruz", "Province": "Sara", "pob_2012": 6069.0, "pob_2024": 6020.0, "diferencia": "-049", "incremento_porcentual": -0.81 }, "geometry": { "type": "Point", "coordinates": [ -63.292394711913261, -17.543565497455329 ] } },
{ "type": "Feature", "properties": { "Municipality": "Colquechaca", "Department": "Potosí", "Province": "Chayanta", "pob_2012": 35199.0, "pob_2024": 16163.0, "diferencia": "-19036", "incremento_porcentual": -54.08 }, "geometry": { "type": "Point", "coordinates": [ -66.013556090146963, -18.808102026982905 ] } },
{ "type": "Feature", "properties": { "Municipality": "Colquencha", "Department": "La Paz", "Province": "Aroma", "pob_2012": 9879.0, "pob_2024": 12344.0, "diferencia": "2465", "incremento_porcentual": 24.95 }, "geometry": { "type": "Point", "coordinates": [ -68.257014591348522, -16.991913579301709 ] } },
{ "type": "Feature", "properties": { "Municipality": "Colquiri", "Department": "La Paz", "Province": "Inquisivi", "pob_2012": 19620.0, "pob_2024": 23456.0, "diferencia": "3836", "incremento_porcentual": 19.55 }, "geometry": { "type": "Point", "coordinates": [ -66.994192059694683, -17.421298487741542 ] } },
{ "type": "Feature", "properties": { "Municipality": "Comanche", "Department": "La Paz", "Province": "Pacajes", "pob_2012": 3880.0, "pob_2024": 5201.0, "diferencia": "1321", "incremento_porcentual": 34.05 }, "geometry": { "type": "Point", "coordinates": [ -68.450184570671652, -16.950445687573009 ] } },
{ "type": "Feature", "properties": { "Municipality": "Comarapa", "Department": "Santa Cruz", "Province": "Manuel María Caballero", "pob_2012": 15919.0, "pob_2024": 17132.0, "diferencia": "1213", "incremento_porcentual": 7.62 }, "geometry": { "type": "Point", "coordinates": [ -64.432030145989742, -17.802311540091591 ] } },
{ "type": "Feature", "properties": { "Municipality": "Combaya", "Department": "La Paz", "Province": "Larecaja", "pob_2012": 3731.0, "pob_2024": 3502.0, "diferencia": "-229", "incremento_porcentual": -6.14 }, "geometry": { "type": "Point", "coordinates": [ -68.753380642735593, -15.81596101991714 ] } },
{ "type": "Feature", "properties": { "Municipality": "Concepción", "Department": "Santa Cruz", "Province": "Ñuflo De Chávez", "pob_2012": 18800.0, "pob_2024": 30109.0, "diferencia": "11309", "incremento_porcentual": 60.15 }, "geometry": { "type": "Point", "coordinates": [ -62.112112836445363, -15.298494951586203 ] } },
{ "type": "Feature", "properties": { "Municipality": "Copacabana", "Department": "La Paz", "Province": "Manco Kapac", "pob_2012": 14931.0, "pob_2024": 17431.0, "diferencia": "2500", "incremento_porcentual": 16.74 }, "geometry": { "type": "Point", "coordinates": [ -69.063441351003462, -16.13682283728949 ] } },
{ "type": "Feature", "properties": { "Municipality": "Coripata", "Department": "La Paz", "Province": "Nor Yungas", "pob_2012": 16930.0, "pob_2024": 23910.0, "diferencia": "6980", "incremento_porcentual": 41.23 }, "geometry": { "type": "Point", "coordinates": [ -67.56734126316573, -16.209038259302204 ] } },
{ "type": "Feature", "properties": { "Municipality": "Coro Coro", "Department": "La Paz", "Province": "Pacajes", "pob_2012": 10647.0, "pob_2024": 13395.0, "diferencia": "2748", "incremento_porcentual": 25.81 }, "geometry": { "type": "Point", "coordinates": [ -68.432311654240209, -17.173127241624989 ] } },
{ "type": "Feature", "properties": { "Municipality": "Coroico", "Department": "La Paz", "Province": "Nor Yungas", "pob_2012": 19397.0, "pob_2024": 27531.0, "diferencia": "8134", "incremento_porcentual": 41.93 }, "geometry": { "type": "Point", "coordinates": [ -67.772605522449965, -16.162491248689324 ] } },
{ "type": "Feature", "properties": { "Municipality": "Corque", "Department": "Oruro", "Province": "Carangas", "pob_2012": 9221.0, "pob_2024": 16020.0, "diferencia": "6799", "incremento_porcentual": 73.73 }, "geometry": { "type": "Point", "coordinates": [ -67.799452545410134, -18.464155727800687 ] } },
{ "type": "Feature", "properties": { "Municipality": "Cotagaita", "Department": "Potosí", "Province": "Nor Chichas", "pob_2012": 31801.0, "pob_2024": 29070.0, "diferencia": "-2731", "incremento_porcentual": -8.59 }, "geometry": { "type": "Point", "coordinates": [ -65.769393250580833, -20.672899461706081 ] } },
{ "type": "Feature", "properties": { "Municipality": "Cotoca", "Department": "Santa Cruz", "Province": "Andrés Ibáñez", "pob_2012": 45519.0, "pob_2024": 106292.0, "diferencia": "60773", "incremento_porcentual": 133.51 }, "geometry": { "type": "Point", "coordinates": [ -62.908254719420896, -17.75478378809543 ] } },
{ "type": "Feature", "properties": { "Municipality": "Cruz de Machacamarca", "Department": "Oruro", "Province": "Litoral", "pob_2012": 1967.0, "pob_2024": 1511.0, "diferencia": "-456", "incremento_porcentual": -23.18 }, "geometry": { "type": "Point", "coordinates": [ -68.374374947427995, -18.716830484134096 ] } },
{ "type": "Feature", "properties": { "Municipality": "Cuatro Cañadas", "Department": "Santa Cruz", "Province": "Ñuflo De Chávez", "pob_2012": 22845.0, "pob_2024": 25260.0, "diferencia": "2415", "incremento_porcentual": 10.57 }, "geometry": { "type": "Point", "coordinates": [ -62.242711808342811, -17.237403361859101 ] } },
{ "type": "Feature", "properties": { "Municipality": "Cuevo", "Department": "Santa Cruz", "Province": "Cordillera", "pob_2012": 5052.0, "pob_2024": 4953.0, "diferencia": "-099", "incremento_porcentual": -1.96 }, "geometry": { "type": "Point", "coordinates": [ -63.539243141945427, -20.330234009590281 ] } },
{ "type": "Feature", "properties": { "Municipality": "Culpina", "Department": "Chuquisaca", "Province": "Sur Cinti", "pob_2012": 17731.0, "pob_2024": 14868.0, "diferencia": "-2863", "incremento_porcentual": -16.15 }, "geometry": { "type": "Point", "coordinates": [ -64.572012282051872, -20.86979744172648 ] } },
{ "type": "Feature", "properties": { "Municipality": "Curahuara de Carangas", "Department": "Oruro", "Province": "Sajama", "pob_2012": 4184.0, "pob_2024": 6671.0, "diferencia": "2487", "incremento_porcentual": 59.44 }, "geometry": { "type": "Point", "coordinates": [ -68.667170252856337, -17.988673513713234 ] } },
{ "type": "Feature", "properties": { "Municipality": "Curva", "Department": "La Paz", "Province": "Bautista Saavedra", "pob_2012": 3285.0, "pob_2024": 6423.0, "diferencia": "3138", "incremento_porcentual": 95.53 }, "geometry": { "type": "Point", "coordinates": [ -68.96541906469254, -14.985150601438985 ] } },
{ "type": "Feature", "properties": { "Municipality": "Desaguadero", "Department": "La Paz", "Province": "Ingavi", "pob_2012": 6987.0, "pob_2024": 7867.0, "diferencia": "880", "incremento_porcentual": 12.59 }, "geometry": { "type": "Point", "coordinates": [ -68.978072419102745, -16.614257752786084 ] } },
{ "type": "Feature", "properties": { "Municipality": "El Alto", "Department": "La Paz", "Province": "Murillo", "pob_2012": 848452.0, "pob_2024": 885035.0, "diferencia": "36583", "incremento_porcentual": 4.31 }, "geometry": { "type": "Point", "coordinates": [ -68.203411631961202, -16.468780530426997 ] } },
{ "type": "Feature", "properties": { "Municipality": "Carmen Rivero Torrez", "Department": "Santa Cruz", "Province": "Germán Busch", "pob_2012": 6342.0, "pob_2024": 8731.0, "diferencia": "2389", "incremento_porcentual": 37.67 }, "geometry": { "type": "Point", "coordinates": [ -58.586369735614809, -18.455474995316521 ] } },
{ "type": "Feature", "properties": { "Municipality": "El Choro", "Department": "Oruro", "Province": "Cercado", "pob_2012": 8725.0, "pob_2024": 10393.0, "diferencia": "1668", "incremento_porcentual": 19.12 }, "geometry": { "type": "Point", "coordinates": [ -67.174752082217367, -18.264341918003161 ] } },
{ "type": "Feature", "properties": { "Municipality": "El Puente", "Department": "Tarija", "Province": "Méndez", "pob_2012": 11354.0, "pob_2024": 9504.0, "diferencia": "-1850", "incremento_porcentual": -16.29 }, "geometry": { "type": "Point", "coordinates": [ -65.049457594632557, -21.278541674102662 ] } },
{ "type": "Feature", "properties": { "Municipality": "El Puente", "Department": "Santa Cruz", "Province": "Guarayos", "pob_2012": 14205.0, "pob_2024": 17214.0, "diferencia": "3009", "incremento_porcentual": 21.18 }, "geometry": { "type": "Point", "coordinates": [ -63.484943268901503, -16.147494212788601 ] } },
{ "type": "Feature", "properties": { "Municipality": "El Torno", "Department": "Santa Cruz", "Province": "Andrés Ibáñez", "pob_2012": 49652.0, "pob_2024": 55558.0, "diferencia": "5906", "incremento_porcentual": 11.89 }, "geometry": { "type": "Point", "coordinates": [ -63.468822489213373, -18.048796291079093 ] } },
{ "type": "Feature", "properties": { "Municipality": "El Villar", "Department": "Chuquisaca", "Province": "Tomina", "pob_2012": 4465.0, "pob_2024": 5636.0, "diferencia": "1171", "incremento_porcentual": 26.23 }, "geometry": { "type": "Point", "coordinates": [ -64.275294908842952, -19.691262165425996 ] } },
{ "type": "Feature", "properties": { "Municipality": "Entre Ríos", "Department": "Cochabamba", "Province": "Carrasco", "pob_2012": 31550.0, "pob_2024": 45520.0, "diferencia": "13970", "incremento_porcentual": 44.28 }, "geometry": { "type": "Point", "coordinates": [ -64.546458242245777, -17.312261682301269 ] } },
{ "type": "Feature", "properties": { "Municipality": "Entre Ríos", "Department": "Tarija", "Province": "O'Connor", "pob_2012": 21991.0, "pob_2024": 20846.0, "diferencia": "-1145", "incremento_porcentual": -5.21 }, "geometry": { "type": "Point", "coordinates": [ -64.065860976532321, -21.397993922073773 ] } },
{ "type": "Feature", "properties": { "Municipality": "Escara", "Department": "Oruro", "Province": "Litoral", "pob_2012": 4223.0, "pob_2024": 4194.0, "diferencia": "-029", "incremento_porcentual": -0.69 }, "geometry": { "type": "Point", "coordinates": [ -68.159340655139957, -18.694415718909557 ] } },
{ "type": "Feature", "properties": { "Municipality": "Escoma", "Department": "La Paz", "Province": "Camacho", "pob_2012": 7186.0, "pob_2024": 8810.0, "diferencia": "1624", "incremento_porcentual": 22.6 }, "geometry": { "type": "Point", "coordinates": [ -69.149129964414769, -15.638170137749247 ] } },
{ "type": "Feature", "properties": { "Municipality": "Esmeralda", "Department": "Oruro", "Province": "Litoral", "pob_2012": 2702.0, "pob_2024": 3883.0, "diferencia": "1181", "incremento_porcentual": 43.71 }, "geometry": { "type": "Point", "coordinates": [ -68.088150068108732, -18.945748331735192 ] } },
{ "type": "Feature", "properties": { "Municipality": "Eucaliptus", "Department": "Oruro", "Province": "Tomás Barrón", "pob_2012": 5267.0, "pob_2024": 5443.0, "diferencia": "176", "incremento_porcentual": 3.34 }, "geometry": { "type": "Point", "coordinates": [ -67.440794831780508, -17.634585525412106 ] } },
{ "type": "Feature", "properties": { "Municipality": "Exaltación", "Department": "Beni", "Province": "Yacuma", "pob_2012": 6362.0, "pob_2024": 7890.0, "diferencia": "1528", "incremento_porcentual": 24.02 }, "geometry": { "type": "Point", "coordinates": [ -65.783193341006623, -12.803936417870728 ] } },
{ "type": "Feature", "properties": { "Municipality": "Fernández Alonso", "Department": "Santa Cruz", "Province": "Obispo Santistéban", "pob_2012": 15117.0, "pob_2024": 14625.0, "diferencia": "-492", "incremento_porcentual": -3.25 }, "geometry": { "type": "Point", "coordinates": [ -63.212289303851591, -16.888664802796882 ] } },
{ "type": "Feature", "properties": { "Municipality": "Filadelfia", "Department": "Pando", "Province": "Manuripi", "pob_2012": 5756.0, "pob_2024": 7941.0, "diferencia": "2185", "incremento_porcentual": 37.96 }, "geometry": { "type": "Point", "coordinates": [ -68.532836415665258, -11.755987619367785 ] } },
{ "type": "Feature", "properties": { "Municipality": "Gral. Saavedra", "Department": "Santa Cruz", "Province": "Obispo Santistéban", "pob_2012": 14209.0, "pob_2024": 16043.0, "diferencia": "1834", "incremento_porcentual": 12.91 }, "geometry": { "type": "Point", "coordinates": [ -63.176292303695277, -17.168183424698768 ] } },
{ "type": "Feature", "properties": { "Municipality": "Guanay", "Department": "La Paz", "Province": "Larecaja", "pob_2012": 14788.0, "pob_2024": 16373.0, "diferencia": "1585", "incremento_porcentual": 10.72 }, "geometry": { "type": "Point", "coordinates": [ -68.042236551719157, -15.736199511408095 ] } },
{ "type": "Feature", "properties": { "Municipality": "Guayaramerín", "Department": "Beni", "Province": "Vaca Diez", "pob_2012": 41814.0, "pob_2024": 40759.0, "diferencia": "-1055", "incremento_porcentual": -2.52 }, "geometry": { "type": "Point", "coordinates": [ -65.434978041613491, -11.30897122126666 ] } },
{ "type": "Feature", "properties": { "Municipality": "Gutiérrez", "Department": "Santa Cruz", "Province": "Cordillera", "pob_2012": 12273.0, "pob_2024": 15169.0, "diferencia": "2896", "incremento_porcentual": 23.6 }, "geometry": { "type": "Point", "coordinates": [ -63.501713264758088, -19.395945203010136 ] } },
{ "type": "Feature", "properties": { "Municipality": "Huacaraje", "Department": "Beni", "Province": "Iténez", "pob_2012": 4111.0, "pob_2024": 4628.0, "diferencia": "517", "incremento_porcentual": 12.58 }, "geometry": { "type": "Point", "coordinates": [ -64.062854313172181, -13.824087311657438 ] } },
{ "type": "Feature", "properties": { "Municipality": "Huacareta", "Department": "Chuquisaca", "Province": "Hernando Siles", "pob_2012": 8349.0, "pob_2024": 7201.0, "diferencia": "-1148", "incremento_porcentual": -13.75 }, "geometry": { "type": "Point", "coordinates": [ -64.009935458442527, -20.594568414435649 ] } },
{ "type": "Feature", "properties": { "Municipality": "Huacaya", "Department": "Chuquisaca", "Province": "Luis Calvo", "pob_2012": 2541.0, "pob_2024": 2546.0, "diferencia": "005", "incremento_porcentual": 0.2 }, "geometry": { "type": "Point", "coordinates": [ -63.594706602186221, -20.716629909335289 ] } },
{ "type": "Feature", "properties": { "Municipality": "Huachacalla", "Department": "Oruro", "Province": "Litoral", "pob_2012": 1003.0, "pob_2024": 3974.0, "diferencia": "2971", "incremento_porcentual": 296.21 }, "geometry": { "type": "Point", "coordinates": [ -68.275109960278371, -18.794517197154661 ] } },
{ "type": "Feature", "properties": { "Municipality": "Huanuni", "Department": "Oruro", "Province": "Pantaleón Dalence", "pob_2012": 24677.0, "pob_2024": 20028.0, "diferencia": "-4649", "incremento_porcentual": -18.84 }, "geometry": { "type": "Point", "coordinates": [ -66.76497950984205, -18.262715937584055 ] } },
{ "type": "Feature", "properties": { "Municipality": "Huarina", "Department": "La Paz", "Province": "Omasuyos", "pob_2012": 7948.0, "pob_2024": 8657.0, "diferencia": "709", "incremento_porcentual": 8.92 }, "geometry": { "type": "Point", "coordinates": [ -68.593355905006703, -16.165084549913118 ] } },
{ "type": "Feature", "properties": { "Municipality": "Huatajata", "Department": "La Paz", "Province": "Omasuyos", "pob_2012": 3927.0, "pob_2024": 5096.0, "diferencia": "1169", "incremento_porcentual": 29.77 }, "geometry": { "type": "Point", "coordinates": [ -68.690797591214235, -16.197998384234275 ] } },
{ "type": "Feature", "properties": { "Municipality": "Huayllamarca", "Department": "Oruro", "Province": "Nor Carangas", "pob_2012": 5502.0, "pob_2024": 5980.0, "diferencia": "478", "incremento_porcentual": 8.69 }, "geometry": { "type": "Point", "coordinates": [ -67.820146259866846, -17.92751596831398 ] } },
{ "type": "Feature", "properties": { "Municipality": "Humanata", "Department": "La Paz", "Province": "Camacho", "pob_2012": 5342.0, "pob_2024": 5615.0, "diferencia": "273", "incremento_porcentual": 5.11 }, "geometry": { "type": "Point", "coordinates": [ -69.170828327036531, -15.414450045759926 ] } },
{ "type": "Feature", "properties": { "Municipality": "Ichoca", "Department": "La Paz", "Province": "Inquisivi", "pob_2012": 7913.0, "pob_2024": 9536.0, "diferencia": "1623", "incremento_porcentual": 20.51 }, "geometry": { "type": "Point", "coordinates": [ -67.193466539108627, -17.184826200765109 ] } },
{ "type": "Feature", "properties": { "Municipality": "Incahuasi", "Department": "Chuquisaca", "Province": "Nor Cinti", "pob_2012": 13056.0, "pob_2024": 16311.0, "diferencia": "3255", "incremento_porcentual": 24.93 }, "geometry": { "type": "Point", "coordinates": [ -64.572146651204008, -20.590673896471309 ] } },
{ "type": "Feature", "properties": { "Municipality": "Ingavi", "Department": "Pando", "Province": "Abuná", "pob_2012": 1654.0, "pob_2024": 2584.0, "diferencia": "930", "incremento_porcentual": 56.23 }, "geometry": { "type": "Point", "coordinates": [ -66.747379856381102, -10.504638097563204 ] } },
{ "type": "Feature", "properties": { "Municipality": "Inquisivi", "Department": "La Paz", "Province": "Inquisivi", "pob_2012": 14717.0, "pob_2024": 18764.0, "diferencia": "4047", "incremento_porcentual": 27.5 }, "geometry": { "type": "Point", "coordinates": [ -66.977965536195327, -16.683251952196024 ] } },
{ "type": "Feature", "properties": { "Municipality": "Irupana", "Department": "La Paz", "Province": "Sud Yungas", "pob_2012": 17276.0, "pob_2024": 23076.0, "diferencia": "5800", "incremento_porcentual": 33.57 }, "geometry": { "type": "Point", "coordinates": [ -67.510167691198319, -16.511109562147276 ] } },
{ "type": "Feature", "properties": { "Municipality": "Ixiamas", "Department": "La Paz", "Province": "Abel Iturralde", "pob_2012": 9362.0, "pob_2024": 12487.0, "diferencia": "3125", "incremento_porcentual": 33.38 }, "geometry": { "type": "Point", "coordinates": [ -68.018739850483541, -13.090163184911994 ] } },
{ "type": "Feature", "properties": { "Municipality": "Jesús de Machaca", "Department": "La Paz", "Province": "Ingavi", "pob_2012": 15039.0, "pob_2024": 16957.0, "diferencia": "1918", "incremento_porcentual": 12.75 }, "geometry": { "type": "Point", "coordinates": [ -68.73998556672953, -16.760733299348061 ] } },
{ "type": "Feature", "properties": { "Municipality": "San Andrés de Machaca", "Department": "La Paz", "Province": "Ingavi", "pob_2012": 6145.0, "pob_2024": 7832.0, "diferencia": "1687", "incremento_porcentual": 27.45 }, "geometry": { "type": "Point", "coordinates": [ -69.04354346409113, -16.89973471464296 ] } },
{ "type": "Feature", "properties": { "Municipality": "La Asunta", "Department": "La Paz", "Province": "Sud Yungas", "pob_2012": 40178.0, "pob_2024": 45586.0, "diferencia": "5408", "incremento_porcentual": 13.46 }, "geometry": { "type": "Point", "coordinates": [ -67.155885273275658, -16.108027210228919 ] } },
{ "type": "Feature", "properties": { "Municipality": "La Guardia", "Department": "Santa Cruz", "Province": "Andrés Ibáñez", "pob_2012": 89284.0, "pob_2024": 147622.0, "diferencia": "58338", "incremento_porcentual": 65.34 }, "geometry": { "type": "Point", "coordinates": [ -63.234005541069585, -18.053692847282505 ] } },
{ "type": "Feature", "properties": { "Municipality": "La Rivera", "Department": "Oruro", "Province": "Mejillones", "pob_2012": 509.0, "pob_2024": 1266.0, "diferencia": "757", "incremento_porcentual": 148.72 }, "geometry": { "type": "Point", "coordinates": [ -68.660144721263919, -19.062027430181569 ] } },
{ "type": "Feature", "properties": { "Municipality": "Lagunillas", "Department": "Santa Cruz", "Province": "Cordillera", "pob_2012": 5366.0, "pob_2024": 5910.0, "diferencia": "544", "incremento_porcentual": 10.14 }, "geometry": { "type": "Point", "coordinates": [ -63.64493662143704, -19.771552771136076 ] } },
{ "type": "Feature", "properties": { "Municipality": "Laja", "Department": "La Paz", "Province": "Los Andes", "pob_2012": 24531.0, "pob_2024": 38612.0, "diferencia": "14081", "incremento_porcentual": 57.4 }, "geometry": { "type": "Point", "coordinates": [ -68.459651396619748, -16.58851625932628 ] } },
{ "type": "Feature", "properties": { "Municipality": "Las Carreras", "Department": "Chuquisaca", "Province": "Sur Cinti", "pob_2012": 4088.0, "pob_2024": 5007.0, "diferencia": "919", "incremento_porcentual": 22.48 }, "geometry": { "type": "Point", "coordinates": [ -65.320230817511131, -21.295641628425042 ] } },
{ "type": "Feature", "properties": { "Municipality": "Llallagua", "Department": "Potosí", "Province": "Rafael Bustillo", "pob_2012": 41104.0, "pob_2024": 41571.0, "diferencia": "467", "incremento_porcentual": 1.14 }, "geometry": { "type": "Point", "coordinates": [ -66.572193398713466, -18.363392653667301 ] } },
{ "type": "Feature", "properties": { "Municipality": "Llica", "Department": "Potosí", "Province": "Daniel Campos", "pob_2012": 4150.0, "pob_2024": 4150.0, "diferencia": "000", "incremento_porcentual": 0.0 }, "geometry": { "type": "Point", "coordinates": [ -68.412187656760764, -20.050281594435063 ] } },
{ "type": "Feature", "properties": { "Municipality": "Loreto", "Department": "Beni", "Province": "Marbán", "pob_2012": 3828.0, "pob_2024": 4263.0, "diferencia": "435", "incremento_porcentual": 11.36 }, "geometry": { "type": "Point", "coordinates": [ -64.920434232404801, -15.568135262423263 ] } },
{ "type": "Feature", "properties": { "Municipality": "Luribay", "Department": "La Paz", "Province": "Loayza", "pob_2012": 11139.0, "pob_2024": 10581.0, "diferencia": "-558", "incremento_porcentual": -5.01 }, "geometry": { "type": "Point", "coordinates": [ -67.634830374087926, -17.09378070893878 ] } },
{ "type": "Feature", "properties": { "Municipality": "Machacamarca", "Department": "Oruro", "Province": "Pantaleón Dalence", "pob_2012": 4820.0, "pob_2024": 6096.0, "diferencia": "1276", "incremento_porcentual": 26.47 }, "geometry": { "type": "Point", "coordinates": [ -66.974433097267863, -18.153288779213035 ] } },
{ "type": "Feature", "properties": { "Municipality": "Macharetí", "Department": "Chuquisaca", "Province": "Luis Calvo", "pob_2012": 7418.0, "pob_2024": 7245.0, "diferencia": "-173", "incremento_porcentual": -2.33 }, "geometry": { "type": "Point", "coordinates": [ -62.878927951678577, -20.725391117234796 ] } },
{ "type": "Feature", "properties": { "Municipality": "Magdalena", "Department": "Beni", "Province": "Iténez", "pob_2012": 11377.0, "pob_2024": 12769.0, "diferencia": "1392", "incremento_porcentual": 12.24 }, "geometry": { "type": "Point", "coordinates": [ -63.687511177229702, -12.994798819320232 ] } },
{ "type": "Feature", "properties": { "Municipality": "Mairana", "Department": "Santa Cruz", "Province": "Florida", "pob_2012": 10177.0, "pob_2024": 12732.0, "diferencia": "2555", "incremento_porcentual": 25.11 }, "geometry": { "type": "Point", "coordinates": [ -64.006931764668067, -17.984606348464709 ] } },
{ "type": "Feature", "properties": { "Municipality": "Malla", "Department": "La Paz", "Province": "Loayza", "pob_2012": 5180.0, "pob_2024": 4866.0, "diferencia": "-314", "incremento_porcentual": -6.06 }, "geometry": { "type": "Point", "coordinates": [ -67.426764395748791, -17.011420000395287 ] } },
{ "type": "Feature", "properties": { "Municipality": "Mapiri", "Department": "La Paz", "Province": "Larecaja", "pob_2012": 13891.0, "pob_2024": 21805.0, "diferencia": "7914", "incremento_porcentual": 56.97 }, "geometry": { "type": "Point", "coordinates": [ -68.257653796010274, -15.380074846547997 ] } },
{ "type": "Feature", "properties": { "Municipality": "Mecapaca", "Department": "La Paz", "Province": "Murillo", "pob_2012": 16086.0, "pob_2024": 20455.0, "diferencia": "4369", "incremento_porcentual": 27.16 }, "geometry": { "type": "Point", "coordinates": [ -67.978705031041386, -16.718523952327825 ] } },
{ "type": "Feature", "properties": { "Municipality": "Mineros", "Department": "Santa Cruz", "Province": "Obispo Santistéban", "pob_2012": 23251.0, "pob_2024": 22731.0, "diferencia": "-520", "incremento_porcentual": -2.24 }, "geometry": { "type": "Point", "coordinates": [ -63.273040178316883, -17.052826513836536 ] } },
{ "type": "Feature", "properties": { "Municipality": "Mizque", "Department": "Cochabamba", "Province": "Mizque", "pob_2012": 26900.0, "pob_2024": 19846.0, "diferencia": "-7054", "incremento_porcentual": -26.22 }, "geometry": { "type": "Point", "coordinates": [ -65.419780966587709, -18.05604776324504 ] } },
{ "type": "Feature", "properties": { "Municipality": "Mocomoco", "Department": "La Paz", "Province": "Camacho", "pob_2012": 15665.0, "pob_2024": 17653.0, "diferencia": "1988", "incremento_porcentual": 12.69 }, "geometry": { "type": "Point", "coordinates": [ -69.035799320768405, -15.449978474199124 ] } },
{ "type": "Feature", "properties": { "Municipality": "Mojinete", "Department": "Potosí", "Province": "Sur Lipez", "pob_2012": 1180.0, "pob_2024": 1022.0, "diferencia": "-158", "incremento_porcentual": -13.39 }, "geometry": { "type": "Point", "coordinates": [ -66.351243454420981, -21.813971974870281 ] } },
{ "type": "Feature", "properties": { "Municipality": "Mojocoya", "Department": "Chuquisaca", "Province": "Zudáñez", "pob_2012": 8068.0, "pob_2024": 8971.0, "diferencia": "903", "incremento_porcentual": 11.19 }, "geometry": { "type": "Point", "coordinates": [ -64.644159389764198, -18.780316438147992 ] } },
{ "type": "Feature", "properties": { "Municipality": "Monteagudo", "Department": "Chuquisaca", "Province": "Hernando Siles", "pob_2012": 24303.0, "pob_2024": 24487.0, "diferencia": "184", "incremento_porcentual": 0.76 }, "geometry": { "type": "Point", "coordinates": [ -64.075082422921909, -20.014697172542739 ] } },
{ "type": "Feature", "properties": { "Municipality": "Montero", "Department": "Santa Cruz", "Province": "Obispo Santistéban", "pob_2012": 109518.0, "pob_2024": 127544.0, "diferencia": "18026", "incremento_porcentual": 16.46 }, "geometry": { "type": "Point", "coordinates": [ -63.249923557632698, -17.33288688516437 ] } },
{ "type": "Feature", "properties": { "Municipality": "Morochata", "Department": "Cochabamba", "Province": "Ayopaya", "pob_2012": 12797.0, "pob_2024": 14598.0, "diferencia": "1801", "incremento_porcentual": 14.07 }, "geometry": { "type": "Point", "coordinates": [ -66.570627675216969, -17.202875968165049 ] } },
{ "type": "Feature", "properties": { "Municipality": "Moro Moro", "Department": "Santa Cruz", "Province": "Vallegrande", "pob_2012": 2767.0, "pob_2024": 2811.0, "diferencia": "044", "incremento_porcentual": 1.59 }, "geometry": { "type": "Point", "coordinates": [ -64.344021604746814, -18.320572182918109 ] } },
{ "type": "Feature", "properties": { "Municipality": "Nazacara de Pacajes", "Department": "La Paz", "Province": "Pacajes", "pob_2012": 619.0, "pob_2024": 3990.0, "diferencia": "3371", "incremento_porcentual": 544.59 }, "geometry": { "type": "Point", "coordinates": [ -68.757234611478836, -16.92669880375249 ] } },
{ "type": "Feature", "properties": { "Municipality": "La Paz", "Department": "La Paz", "Province": "Murillo", "pob_2012": 766468.0, "pob_2024": 755732.0, "diferencia": "-10736", "incremento_porcentual": -1.4 }, "geometry": { "type": "Point", "coordinates": [ -67.971743258211134, -16.167675591603274 ] } },
{ "type": "Feature", "properties": { "Municipality": "Nueva Esperanza", "Department": "Pando", "Province": "Federico Román", "pob_2012": 2068.0, "pob_2024": 1390.0, "diferencia": "-678", "incremento_porcentual": -32.79 }, "geometry": { "type": "Point", "coordinates": [ -65.537801864697713, -10.111324249051489 ] } },
{ "type": "Feature", "properties": { "Municipality": "Ocurí", "Department": "Potosí", "Province": "Chayanta", "pob_2012": 16118.0, "pob_2024": 14367.0, "diferencia": "-1751", "incremento_porcentual": -10.86 }, "geometry": { "type": "Point", "coordinates": [ -65.768391945709041, -18.889861788166332 ] } },
{ "type": "Feature", "properties": { "Municipality": "Okinawa Uno", "Department": "Santa Cruz", "Province": "Warnes", "pob_2012": 12482.0, "pob_2024": 10508.0, "diferencia": "-1974", "incremento_porcentual": -15.81 }, "geometry": { "type": "Point", "coordinates": [ -62.865500992988331, -17.322857873364843 ] } },
{ "type": "Feature", "properties": { "Municipality": "Omereque", "Department": "Cochabamba", "Province": "Campero", "pob_2012": 5643.0, "pob_2024": 6678.0, "diferencia": "1035", "incremento_porcentual": 18.34 }, "geometry": { "type": "Point", "coordinates": [ -64.893375542037234, -18.070463666326088 ] } },
{ "type": "Feature", "properties": { "Municipality": "Oruro", "Department": "Oruro", "Province": "Cercado", "pob_2012": 264943.0, "pob_2024": 297497.0, "diferencia": "32554", "incremento_porcentual": 12.29 }, "geometry": { "type": "Point", "coordinates": [ -67.091496606597744, -17.959970736942825 ] } },
{ "type": "Feature", "properties": { "Municipality": "Padcaya", "Department": "Tarija", "Province": "Arce", "pob_2012": 18681.0, "pob_2024": 17783.0, "diferencia": "-898", "incremento_porcentual": -4.81 }, "geometry": { "type": "Point", "coordinates": [ -64.529520459236863, -22.133867535588912 ] } },
{ "type": "Feature", "properties": { "Municipality": "Padilla", "Department": "Chuquisaca", "Province": "Tomina", "pob_2012": 10383.0, "pob_2024": 7542.0, "diferencia": "-2841", "incremento_porcentual": -27.36 }, "geometry": { "type": "Point", "coordinates": [ -64.160760486252471, -19.374779826796939 ] } },
{ "type": "Feature", "properties": { "Municipality": "Pailón", "Department": "Santa Cruz", "Province": "Chiquitos", "pob_2012": 37866.0, "pob_2024": 54357.0, "diferencia": "16491", "incremento_porcentual": 43.55 }, "geometry": { "type": "Point", "coordinates": [ -61.921353125165709, -17.757115300258182 ] } },
{ "type": "Feature", "properties": { "Municipality": "Palca", "Department": "La Paz", "Province": "Murillo", "pob_2012": 16622.0, "pob_2024": 21641.0, "diferencia": "5019", "incremento_porcentual": 30.19 }, "geometry": { "type": "Point", "coordinates": [ -67.826135726237567, -16.666335359222519 ] } },
{ "type": "Feature", "properties": { "Municipality": "Palos Blancos", "Department": "La Paz", "Province": "Sud Yungas", "pob_2012": 24731.0, "pob_2024": 26995.0, "diferencia": "2264", "incremento_porcentual": 9.15 }, "geometry": { "type": "Point", "coordinates": [ -67.231558844572248, -15.417684027586354 ] } },
{ "type": "Feature", "properties": { "Municipality": "Pampa Aullagas", "Department": "Oruro", "Province": "Ladislao Cabrera", "pob_2012": 2973.0, "pob_2024": 3180.0, "diferencia": "207", "incremento_porcentual": 6.96 }, "geometry": { "type": "Point", "coordinates": [ -67.165179852102185, -19.231458042621071 ] } },
{ "type": "Feature", "properties": { "Municipality": "Pampa Grande", "Department": "Santa Cruz", "Province": "Florida", "pob_2012": 9198.0, "pob_2024": 9650.0, "diferencia": "452", "incremento_porcentual": 4.91 }, "geometry": { "type": "Point", "coordinates": [ -64.153399637774683, -18.045497111387977 ] } },
{ "type": "Feature", "properties": { "Municipality": "Papel Pampa", "Department": "La Paz", "Province": "Gualberto Villarroel", "pob_2012": 7003.0, "pob_2024": 6222.0, "diferencia": "-781", "incremento_porcentual": -11.15 }, "geometry": { "type": "Point", "coordinates": [ -67.709619310078708, -17.697216452019497 ] } },
{ "type": "Feature", "properties": { "Municipality": "Soracachi", "Department": "Oruro", "Province": "Cercado", "pob_2012": 12846.0, "pob_2024": 15675.0, "diferencia": "2829", "incremento_porcentual": 22.02 }, "geometry": { "type": "Point", "coordinates": [ -66.935963586245322, -17.857170087390028 ] } },
{ "type": "Feature", "properties": { "Municipality": "Pasorapa", "Department": "Cochabamba", "Province": "Campero", "pob_2012": 6853.0, "pob_2024": 6468.0, "diferencia": "-385", "incremento_porcentual": -5.62 }, "geometry": { "type": "Point", "coordinates": [ -64.600906420150721, -18.392293799101942 ] } },
{ "type": "Feature", "properties": { "Municipality": "Patacamaya", "Department": "La Paz", "Province": "Aroma", "pob_2012": 22858.0, "pob_2024": 25049.0, "diferencia": "2191", "incremento_porcentual": 9.59 }, "geometry": { "type": "Point", "coordinates": [ -67.913346569515042, -17.216472891912368 ] } },
{ "type": "Feature", "properties": { "Municipality": "Pazña", "Department": "Oruro", "Province": "Poopó", "pob_2012": 5955.0, "pob_2024": 4220.0, "diferencia": "-1735", "incremento_porcentual": -29.14 }, "geometry": { "type": "Point", "coordinates": [ -66.912979109691861, -18.613399607647285 ] } },
{ "type": "Feature", "properties": { "Municipality": "Pelechuco", "Department": "La Paz", "Province": "Franz Tamayo", "pob_2012": 6780.0, "pob_2024": 8993.0, "diferencia": "2213", "incremento_porcentual": 32.64 }, "geometry": { "type": "Point", "coordinates": [ -69.090592862084094, -14.800645320822156 ] } },
{ "type": "Feature", "properties": { "Municipality": "Pocoata", "Department": "Potosí", "Province": "Chayanta", "pob_2012": 26330.0, "pob_2024": 32307.0, "diferencia": "5977", "incremento_porcentual": 22.7 }, "geometry": { "type": "Point", "coordinates": [ -66.155703591404361, -18.639367657455324 ] } },
{ "type": "Feature", "properties": { "Municipality": "Pocona", "Department": "Cochabamba", "Province": "Carrasco", "pob_2012": 10750.0, "pob_2024": 12216.0, "diferencia": "1466", "incremento_porcentual": 13.64 }, "geometry": { "type": "Point", "coordinates": [ -65.371824906722935, -17.681908485933462 ] } },
{ "type": "Feature", "properties": { "Municipality": "Pojo", "Department": "Cochabamba", "Province": "Carrasco", "pob_2012": 10156.0, "pob_2024": 11840.0, "diferencia": "1684", "incremento_porcentual": 16.58 }, "geometry": { "type": "Point", "coordinates": [ -64.863565391164045, -17.600516854467962 ] } },
{ "type": "Feature", "properties": { "Municipality": "Poopó", "Department": "Oruro", "Province": "Poopó", "pob_2012": 7587.0, "pob_2024": 9152.0, "diferencia": "1565", "incremento_porcentual": 20.63 }, "geometry": { "type": "Point", "coordinates": [ -66.94157428594913, -18.366687739074703 ] } },
{ "type": "Feature", "properties": { "Municipality": "Porco", "Department": "Potosí", "Province": "Antonio Quijarro", "pob_2012": 10866.0, "pob_2024": 14626.0, "diferencia": "3760", "incremento_porcentual": 34.6 }, "geometry": { "type": "Point", "coordinates": [ -65.98413101096564, -19.807946810602136 ] } },
{ "type": "Feature", "properties": { "Municipality": "Poroma", "Department": "Chuquisaca", "Province": "Oropeza", "pob_2012": 17377.0, "pob_2024": 13640.0, "diferencia": "-3737", "incremento_porcentual": -21.51 }, "geometry": { "type": "Point", "coordinates": [ -65.385155832361846, -18.621718194121865 ] } },
{ "type": "Feature", "properties": { "Municipality": "Porongo", "Department": "Santa Cruz", "Province": "Andrés Ibáñez", "pob_2012": 15317.0, "pob_2024": 23016.0, "diferencia": "7699", "incremento_porcentual": 50.26 }, "geometry": { "type": "Point", "coordinates": [ -63.364857237929321, -17.750338570944358 ] } },
{ "type": "Feature", "properties": { "Municipality": "Portachuelo", "Department": "Santa Cruz", "Province": "Sara", "pob_2012": 17885.0, "pob_2024": 20709.0, "diferencia": "2824", "incremento_porcentual": 15.79 }, "geometry": { "type": "Point", "coordinates": [ -63.448578020230904, -17.356892096148329 ] } },
{ "type": "Feature", "properties": { "Municipality": "Porvenir", "Department": "Pando", "Province": "Nicolás Suárez", "pob_2012": 7948.0, "pob_2024": 8970.0, "diferencia": "1022", "incremento_porcentual": 12.86 }, "geometry": { "type": "Point", "coordinates": [ -68.793441175259318, -11.238267303402759 ] } },
{ "type": "Feature", "properties": { "Municipality": "Postrer Valle", "Department": "Santa Cruz", "Province": "Vallegrande", "pob_2012": 2390.0, "pob_2024": 1796.0, "diferencia": "-594", "incremento_porcentual": -24.85 }, "geometry": { "type": "Point", "coordinates": [ -63.763214454439449, -18.625005854425893 ] } },
{ "type": "Feature", "properties": { "Municipality": "Potosí", "Department": "Potosí", "Province": "Tomás Frías", "pob_2012": 191302.0, "pob_2024": 218336.0, "diferencia": "27034", "incremento_porcentual": 14.13 }, "geometry": { "type": "Point", "coordinates": [ -65.722014745691354, -19.537430854379409 ] } },
{ "type": "Feature", "properties": { "Municipality": "Presto", "Department": "Chuquisaca", "Province": "Zudáñez", "pob_2012": 12385.0, "pob_2024": 12023.0, "diferencia": "-362", "incremento_porcentual": -2.92 }, "geometry": { "type": "Point", "coordinates": [ -64.893024400268885, -18.755604801433151 ] } },
{ "type": "Feature", "properties": { "Municipality": "Pucara", "Department": "Santa Cruz", "Province": "Vallegrande", "pob_2012": 2076.0, "pob_2024": 2009.0, "diferencia": "-067", "incremento_porcentual": -3.23 }, "geometry": { "type": "Point", "coordinates": [ -64.19099120138516, -18.762539962358289 ] } },
{ "type": "Feature", "properties": { "Municipality": "Pucarani", "Department": "La Paz", "Province": "Los Andes", "pob_2012": 28465.0, "pob_2024": 49701.0, "diferencia": "21236", "incremento_porcentual": 74.6 }, "geometry": { "type": "Point", "coordinates": [ -68.416126515065898, -16.360445752451561 ] } },
{ "type": "Feature", "properties": { "Municipality": "Puerto Acosta", "Department": "La Paz", "Province": "Camacho", "pob_2012": 11290.0, "pob_2024": 13940.0, "diferencia": "2650", "incremento_porcentual": 23.47 }, "geometry": { "type": "Point", "coordinates": [ -69.21557290750934, -15.554979045165076 ] } },
{ "type": "Feature", "properties": { "Municipality": "Puerto Gonzales Moreno", "Department": "Pando", "Province": "Madre de Dios", "pob_2012": 8160.0, "pob_2024": 12006.0, "diferencia": "3846", "incremento_porcentual": 47.13 }, "geometry": { "type": "Point", "coordinates": [ -66.325107385161488, -11.167128734657082 ] } },
{ "type": "Feature", "properties": { "Municipality": "Pto. Carabuco", "Department": "La Paz", "Province": "Camacho", "pob_2012": 14589.0, "pob_2024": 17248.0, "diferencia": "2659", "incremento_porcentual": 18.23 }, "geometry": { "type": "Point", "coordinates": [ -69.000926384399946, -15.712043582384013 ] } },
{ "type": "Feature", "properties": { "Municipality": "Guaqui", "Department": "La Paz", "Province": "Ingavi", "pob_2012": 7278.0, "pob_2024": 8599.0, "diferencia": "1321", "incremento_porcentual": 18.15 }, "geometry": { "type": "Point", "coordinates": [ -68.820809718645663, -16.606754182400429 ] } },
{ "type": "Feature", "properties": { "Municipality": "Rurrenabaque", "Department": "Beni", "Province": "General José Ballivián", "pob_2012": 19195.0, "pob_2024": 21018.0, "diferencia": "1823", "incremento_porcentual": 9.5 }, "geometry": { "type": "Point", "coordinates": [ -67.305753396025153, -14.688680762375441 ] } },
{ "type": "Feature", "properties": { "Municipality": "Puerto Pérez", "Department": "La Paz", "Province": "Los Andes", "pob_2012": 8157.0, "pob_2024": 7874.0, "diferencia": "-283", "incremento_porcentual": -3.47 }, "geometry": { "type": "Point", "coordinates": [ -68.647846617016313, -16.326662241053981 ] } },
{ "type": "Feature", "properties": { "Municipality": "Puerto Quijarro", "Department": "Santa Cruz", "Province": "Germán Busch", "pob_2012": 16659.0, "pob_2024": 17826.0, "diferencia": "1167", "incremento_porcentual": 7.01 }, "geometry": { "type": "Point", "coordinates": [ -57.68495377833834, -18.426122704817352 ] } },
{ "type": "Feature", "properties": { "Municipality": "Puerto Rico", "Department": "Pando", "Province": "Manuripi", "pob_2012": 6239.0, "pob_2024": 7217.0, "diferencia": "978", "incremento_porcentual": 15.68 }, "geometry": { "type": "Point", "coordinates": [ -67.538056523145599, -11.327725804707292 ] } },
{ "type": "Feature", "properties": { "Municipality": "Puerto Siles", "Department": "Beni", "Province": "Mamoré", "pob_2012": 945.0, "pob_2024": 1095.0, "diferencia": "150", "incremento_porcentual": 15.87 }, "geometry": { "type": "Point", "coordinates": [ -64.986308889188138, -12.424251018087034 ] } },
{ "type": "Feature", "properties": { "Municipality": "Puerto Suarez", "Department": "Santa Cruz", "Province": "Germán Busch", "pob_2012": 19829.0, "pob_2024": 17378.0, "diferencia": "-2451", "incremento_porcentual": -12.36 }, "geometry": { "type": "Point", "coordinates": [ -58.256607466604457, -19.071384011651173 ] } },
{ "type": "Feature", "properties": { "Municipality": "Puerto Villarroel", "Department": "Cochabamba", "Province": "Carrasco", "pob_2012": 46627.0, "pob_2024": 64345.0, "diferencia": "17718", "incremento_porcentual": 38.0 }, "geometry": { "type": "Point", "coordinates": [ -64.884527493049859, -17.032559987524465 ] } },
{ "type": "Feature", "properties": { "Municipality": "Puna", "Department": "Potosí", "Province": "José María Linares", "pob_2012": 21917.0, "pob_2024": 16350.0, "diferencia": "-5567", "incremento_porcentual": -25.4 }, "geometry": { "type": "Point", "coordinates": [ -65.400073604310421, -19.876835308726431 ] } },
{ "type": "Feature", "properties": { "Municipality": "Punata", "Department": "Cochabamba", "Province": "Punata", "pob_2012": 28887.0, "pob_2024": 34813.0, "diferencia": "5926", "incremento_porcentual": 20.51 }, "geometry": { "type": "Point", "coordinates": [ -65.831312428712224, -17.549257302630348 ] } },
{ "type": "Feature", "properties": { "Municipality": "Quiabaya", "Department": "La Paz", "Province": "Larecaja", "pob_2012": 2684.0, "pob_2024": 4221.0, "diferencia": "1537", "incremento_porcentual": 57.27 }, "geometry": { "type": "Point", "coordinates": [ -68.714174971939499, -15.602455154368505 ] } },
{ "type": "Feature", "properties": { "Municipality": "Quillacollo", "Department": "Cochabamba", "Province": "Quillacollo", "pob_2012": 137182.0, "pob_2024": 165830.0, "diferencia": "28648", "incremento_porcentual": 20.88 }, "geometry": { "type": "Point", "coordinates": [ -66.329179828971775, -17.211280230849596 ] } },
{ "type": "Feature", "properties": { "Municipality": "Quime", "Department": "La Paz", "Province": "Inquisivi", "pob_2012": 8266.0, "pob_2024": 11184.0, "diferencia": "2918", "incremento_porcentual": 35.3 }, "geometry": { "type": "Point", "coordinates": [ -67.3408812533348, -16.848932352094721 ] } },
{ "type": "Feature", "properties": { "Municipality": "Quirusillas", "Department": "Santa Cruz", "Province": "Florida", "pob_2012": 2995.0, "pob_2024": 3095.0, "diferencia": "100", "incremento_porcentual": 3.34 }, "geometry": { "type": "Point", "coordinates": [ -63.937565942226655, -18.370617557819028 ] } },
{ "type": "Feature", "properties": { "Municipality": "Ravelo", "Department": "Potosí", "Province": "Chayanta", "pob_2012": 20789.0, "pob_2024": 16728.0, "diferencia": "-4061", "incremento_porcentual": -19.53 }, "geometry": { "type": "Point", "coordinates": [ -65.563344811661494, -18.752689526106742 ] } },
{ "type": "Feature", "properties": { "Municipality": "Reyes", "Department": "Beni", "Province": "General José Ballivián", "pob_2012": 13246.0, "pob_2024": 11274.0, "diferencia": "-1972", "incremento_porcentual": -14.89 }, "geometry": { "type": "Point", "coordinates": [ -67.058108188329371, -13.403012494918066 ] } },
{ "type": "Feature", "properties": { "Municipality": "Riberalta", "Department": "Beni", "Province": "Vaca Diez", "pob_2012": 89022.0, "pob_2024": 107141.0, "diferencia": "18119", "incremento_porcentual": 20.35 }, "geometry": { "type": "Point", "coordinates": [ -66.100803120049946, -11.527869452787428 ] } },
{ "type": "Feature", "properties": { "Municipality": "Roboré", "Department": "Santa Cruz", "Province": "Chiquitos", "pob_2012": 15641.0, "pob_2024": 18701.0, "diferencia": "3060", "incremento_porcentual": 19.56 }, "geometry": { "type": "Point", "coordinates": [ -59.611886504486328, -18.215392399747099 ] } },
{ "type": "Feature", "properties": { "Municipality": "Sabaya", "Department": "Oruro", "Province": "Sabaya", "pob_2012": 8018.0, "pob_2024": 15387.0, "diferencia": "7369", "incremento_porcentual": 91.91 }, "geometry": { "type": "Point", "coordinates": [ -68.609924083035864, -18.907609638648921 ] } },
{ "type": "Feature", "properties": { "Municipality": "Sacaba", "Department": "Cochabamba", "Province": "Chapare", "pob_2012": 172466.0, "pob_2024": 218502.0, "diferencia": "46036", "incremento_porcentual": 26.69 }, "geometry": { "type": "Point", "coordinates": [ -66.030372052275595, -17.331664560317567 ] } },
{ "type": "Feature", "properties": { "Municipality": "Sacabamba", "Department": "Cochabamba", "Province": "Esteban Arze", "pob_2012": 4366.0, "pob_2024": 4953.0, "diferencia": "587", "incremento_porcentual": 13.44 }, "geometry": { "type": "Point", "coordinates": [ -65.786225614305664, -17.776442235542646 ] } },
{ "type": "Feature", "properties": { "Municipality": "Villa deSacaca", "Department": "Potosí", "Province": "Alonso de Ibáñez", "pob_2012": 19611.0, "pob_2024": 17188.0, "diferencia": "-2423", "incremento_porcentual": -12.36 }, "geometry": { "type": "Point", "coordinates": [ -66.343674726602444, -18.117618467440789 ] } },
{ "type": "Feature", "properties": { "Municipality": "Saipina", "Department": "Santa Cruz", "Province": "Manuel María Caballero", "pob_2012": 7390.0, "pob_2024": 6057.0, "diferencia": "-1333", "incremento_porcentual": -18.04 }, "geometry": { "type": "Point", "coordinates": [ -64.639956165964023, -18.023631039888244 ] } },
{ "type": "Feature", "properties": { "Municipality": "Salinas de García Mendoza", "Department": "Oruro", "Province": "Ladislao Cabrera", "pob_2012": 11878.0, "pob_2024": 15906.0, "diferencia": "4028", "incremento_porcentual": 33.91 }, "geometry": { "type": "Point", "coordinates": [ -67.614131055910491, -19.436634111722888 ] } },
{ "type": "Feature", "properties": { "Municipality": "Samaipata", "Department": "Santa Cruz", "Province": "Florida", "pob_2012": 10472.0, "pob_2024": 11814.0, "diferencia": "1342", "incremento_porcentual": 12.82 }, "geometry": { "type": "Point", "coordinates": [ -63.750093445461602, -18.175265848612785 ] } },
{ "type": "Feature", "properties": { "Municipality": "San Agustín", "Department": "Potosí", "Province": "Enrique Baldivieso", "pob_2012": 1684.0, "pob_2024": 2119.0, "diferencia": "435", "incremento_porcentual": 25.83 }, "geometry": { "type": "Point", "coordinates": [ -67.413958640892915, -21.495295777708435 ] } },
{ "type": "Feature", "properties": { "Municipality": "San Andrés", "Department": "Beni", "Province": "Marbán", "pob_2012": 12503.0, "pob_2024": 15635.0, "diferencia": "3132", "incremento_porcentual": 25.05 }, "geometry": { "type": "Point", "coordinates": [ -64.142282123943261, -15.37398151438839 ] } },
{ "type": "Feature", "properties": { "Municipality": "San Antonio de Esmoruco", "Department": "Potosí", "Province": "Sur Lipez", "pob_2012": 2284.0, "pob_2024": 1941.0, "diferencia": "-343", "incremento_porcentual": -15.02 }, "geometry": { "type": "Point", "coordinates": [ -66.634465985881945, -22.084160860099836 ] } },
{ "type": "Feature", "properties": { "Municipality": "San Antonio de Lomerío", "Department": "Santa Cruz", "Province": "Ñuflo De Chávez", "pob_2012": 6481.0, "pob_2024": 6346.0, "diferencia": "-135", "incremento_porcentual": -2.08 }, "geometry": { "type": "Point", "coordinates": [ -61.874164911538301, -16.806357852254575 ] } },
{ "type": "Feature", "properties": { "Municipality": "San Benito", "Department": "Cochabamba", "Province": "Punata", "pob_2012": 13562.0, "pob_2024": 12924.0, "diferencia": "-638", "incremento_porcentual": -4.7 }, "geometry": { "type": "Point", "coordinates": [ -65.878918964542152, -17.498183613879782 ] } },
{ "type": "Feature", "properties": { "Municipality": "San Borja", "Department": "Beni", "Province": "General José Ballivián", "pob_2012": 40864.0, "pob_2024": 45562.0, "diferencia": "4698", "incremento_porcentual": 11.5 }, "geometry": { "type": "Point", "coordinates": [ -66.808467293138534, -15.00365074788033 ] } },
{ "type": "Feature", "properties": { "Municipality": "San Buenaventura", "Department": "La Paz", "Province": "Abel Iturralde", "pob_2012": 8711.0, "pob_2024": 10115.0, "diferencia": "1404", "incremento_porcentual": 16.12 }, "geometry": { "type": "Point", "coordinates": [ -67.744945835124611, -14.259109869238753 ] } },
{ "type": "Feature", "properties": { "Municipality": "San Carlos", "Department": "Santa Cruz", "Province": "Ichilo", "pob_2012": 20093.0, "pob_2024": 18998.0, "diferencia": "-1095", "incremento_porcentual": -5.45 }, "geometry": { "type": "Point", "coordinates": [ -63.753584215484693, -17.290725953786328 ] } },
{ "type": "Feature", "properties": { "Municipality": "San Ignacio", "Department": "Santa Cruz", "Province": "Velasco", "pob_2012": 52362.0, "pob_2024": 67610.0, "diferencia": "15248", "incremento_porcentual": 29.12 }, "geometry": { "type": "Point", "coordinates": [ -60.994528731928654, -15.029620907704697 ] } },
{ "type": "Feature", "properties": { "Municipality": "San Ignacio", "Department": "Beni", "Province": "Moxos", "pob_2012": 21114.0, "pob_2024": 21578.0, "diferencia": "464", "incremento_porcentual": 2.2 }, "geometry": { "type": "Point", "coordinates": [ -65.686763314458929, -15.468566210154536 ] } },
{ "type": "Feature", "properties": { "Municipality": "San Javier", "Department": "Santa Cruz", "Province": "Ñuflo De Chávez", "pob_2012": 13620.0, "pob_2024": 14897.0, "diferencia": "1277", "incremento_porcentual": 9.38 }, "geometry": { "type": "Point", "coordinates": [ -62.490914615734425, -16.233743101217811 ] } },
{ "type": "Feature", "properties": { "Municipality": "San Javier", "Department": "Beni", "Province": "Cercado", "pob_2012": 5277.0, "pob_2024": 7654.0, "diferencia": "2377", "incremento_porcentual": 45.04 }, "geometry": { "type": "Point", "coordinates": [ -64.42544726040235, -14.422065647889076 ] } },
{ "type": "Feature", "properties": { "Municipality": "San Joaquín", "Department": "Beni", "Province": "Mamoré", "pob_2012": 6917.0, "pob_2024": 6851.0, "diferencia": "-066", "incremento_porcentual": -0.95 }, "geometry": { "type": "Point", "coordinates": [ -64.855725950410687, -12.960814317450756 ] } },
{ "type": "Feature", "properties": { "Municipality": "San Joséde Chiquitos", "Department": "Santa Cruz", "Province": "Chiquitos", "pob_2012": 28922.0, "pob_2024": 40961.0, "diferencia": "12039", "incremento_porcentual": 41.63 }, "geometry": { "type": "Point", "coordinates": [ -60.424758589778598, -17.70223796486221 ] } },
{ "type": "Feature", "properties": { "Municipality": "San Juan de Yapacani", "Department": "Santa Cruz", "Province": "Ichilo", "pob_2012": 9191.0, "pob_2024": 10206.0, "diferencia": "1015", "incremento_porcentual": 11.04 }, "geometry": { "type": "Point", "coordinates": [ -63.998737297791791, -16.861096270491664 ] } },
{ "type": "Feature", "properties": { "Municipality": "San Julián", "Department": "Santa Cruz", "Province": "Ñuflo De Chávez", "pob_2012": 47416.0, "pob_2024": 44635.0, "diferencia": "-2781", "incremento_porcentual": -5.87 }, "geometry": { "type": "Point", "coordinates": [ -62.813640302323854, -16.792952928947315 ] } },
{ "type": "Feature", "properties": { "Municipality": "San Lorenzo", "Department": "Tarija", "Province": "Méndez", "pob_2012": 23863.0, "pob_2024": 30352.0, "diferencia": "6489", "incremento_porcentual": 27.19 }, "geometry": { "type": "Point", "coordinates": [ -64.695279590634001, -21.23412695002003 ] } },
{ "type": "Feature", "properties": { "Municipality": "San Lorenzo", "Department": "Pando", "Province": "Madre de Dios", "pob_2012": 7652.0, "pob_2024": 9203.0, "diferencia": "1551", "incremento_porcentual": 20.27 }, "geometry": { "type": "Point", "coordinates": [ -66.821160092613269, -11.596249937331947 ] } },
{ "type": "Feature", "properties": { "Municipality": "San Lucas", "Department": "Chuquisaca", "Province": "Nor Cinti", "pob_2012": 32520.0, "pob_2024": 26486.0, "diferencia": "-6034", "incremento_porcentual": -18.55 }, "geometry": { "type": "Point", "coordinates": [ -64.899321419633253, -20.160733077742972 ] } },
{ "type": "Feature", "properties": { "Municipality": "San Matías", "Department": "Santa Cruz", "Province": "Angel Sandoval", "pob_2012": 14470.0, "pob_2024": 15336.0, "diferencia": "866", "incremento_porcentual": 5.98 }, "geometry": { "type": "Point", "coordinates": [ -58.823336037140891, -17.255049240617602 ] } },
{ "type": "Feature", "properties": { "Municipality": "San Miguel de Velasco", "Department": "Santa Cruz", "Province": "Velasco", "pob_2012": 11327.0, "pob_2024": 15177.0, "diferencia": "3850", "incremento_porcentual": 33.99 }, "geometry": { "type": "Point", "coordinates": [ -61.272362639376645, -16.843004929487844 ] } },
{ "type": "Feature", "properties": { "Municipality": "San Pablo de Lipez", "Department": "Potosí", "Province": "Sur Lipez", "pob_2012": 3371.0, "pob_2024": 3136.0, "diferencia": "-235", "incremento_porcentual": -6.97 }, "geometry": { "type": "Point", "coordinates": [ -67.234174287064604, -22.177082327942216 ] } },
{ "type": "Feature", "properties": { "Municipality": "San Pedro", "Department": "Potosí", "Province": "Chárcas", "pob_2012": 30012.0, "pob_2024": 27961.0, "diferencia": "-2051", "incremento_porcentual": -6.83 }, "geometry": { "type": "Point", "coordinates": [ -65.968276227210012, -18.340574794600322 ] } },
{ "type": "Feature", "properties": { "Municipality": "San Pedro", "Department": "Santa Cruz", "Province": "Obispo Santistéban", "pob_2012": 19103.0, "pob_2024": 15158.0, "diferencia": "-3945", "incremento_porcentual": -20.65 }, "geometry": { "type": "Point", "coordinates": [ -63.611867567698525, -16.517456538535921 ] } },
{ "type": "Feature", "properties": { "Municipality": "San Pedro", "Department": "Pando", "Province": "Manuripi", "pob_2012": 2991.0, "pob_2024": 3239.0, "diferencia": "248", "incremento_porcentual": 8.29 }, "geometry": { "type": "Point", "coordinates": [ -66.58994527262908, -11.025449034962588 ] } },
{ "type": "Feature", "properties": { "Municipality": "San Pedro Cuarahuara", "Department": "La Paz", "Province": "Gualberto Villarroel", "pob_2012": 8858.0, "pob_2024": 9044.0, "diferencia": "186", "incremento_porcentual": 2.1 }, "geometry": { "type": "Point", "coordinates": [ -67.966682221680216, -17.633451548033584 ] } },
{ "type": "Feature", "properties": { "Municipality": "San Pedro de Quemes", "Department": "Potosí", "Province": "Nor Lipez", "pob_2012": 1060.0, "pob_2024": 1603.0, "diferencia": "543", "incremento_porcentual": 51.23 }, "geometry": { "type": "Point", "coordinates": [ -68.173805689980298, -21.000144251401217 ] } },
{ "type": "Feature", "properties": { "Municipality": "San Pedro de Tiquina", "Department": "La Paz", "Province": "Manco Kapac", "pob_2012": 6052.0, "pob_2024": 9097.0, "diferencia": "3045", "incremento_porcentual": 50.31 }, "geometry": { "type": "Point", "coordinates": [ -68.865974638228693, -16.231275865592263 ] } },
{ "type": "Feature", "properties": { "Municipality": "San Rafael", "Department": "Santa Cruz", "Province": "Velasco", "pob_2012": 6139.0, "pob_2024": 8786.0, "diferencia": "2647", "incremento_porcentual": 43.12 }, "geometry": { "type": "Point", "coordinates": [ -60.140939798270487, -16.81549585563976 ] } },
{ "type": "Feature", "properties": { "Municipality": "San Ramón", "Department": "Santa Cruz", "Province": "Ñuflo De Chávez", "pob_2012": 7490.0, "pob_2024": 8427.0, "diferencia": "937", "incremento_porcentual": 12.51 }, "geometry": { "type": "Point", "coordinates": [ -62.43449912489271, -16.577007362961425 ] } },
{ "type": "Feature", "properties": { "Municipality": "San Ramón", "Department": "Beni", "Province": "Mamoré", "pob_2012": 4955.0, "pob_2024": 5441.0, "diferencia": "486", "incremento_porcentual": 9.81 }, "geometry": { "type": "Point", "coordinates": [ -64.599843789923838, -13.50809599302565 ] } },
{ "type": "Feature", "properties": { "Municipality": "Santa Ana de Yacuma", "Department": "Beni", "Province": "Yacuma", "pob_2012": 18439.0, "pob_2024": 18102.0, "diferencia": "-337", "incremento_porcentual": -1.83 }, "geometry": { "type": "Point", "coordinates": [ -65.996460639192961, -14.350198690020232 ] } },
{ "type": "Feature", "properties": { "Municipality": "Santa Cruz de la Sierra", "Department": "Santa Cruz", "Province": "Andrés Ibáñez", "pob_2012": 1454539.0, "pob_2024": 1606671.0, "diferencia": "152132", "incremento_porcentual": 10.46 }, "geometry": { "type": "Point", "coordinates": [ -62.998106768770782, -17.807075739446326 ] } },
{ "type": "Feature", "properties": { "Municipality": "Santa Rosa", "Department": "Santa Cruz", "Province": "Sara", "pob_2012": 19217.0, "pob_2024": 17984.0, "diferencia": "-1233", "incremento_porcentual": -6.42 }, "geometry": { "type": "Point", "coordinates": [ -63.838681354771872, -16.659250482520978 ] } },
{ "type": "Feature", "properties": { "Municipality": "Santa Rosa", "Department": "Beni", "Province": "General José Ballivián", "pob_2012": 9478.0, "pob_2024": 10910.0, "diferencia": "1432", "incremento_porcentual": 15.11 }, "geometry": { "type": "Point", "coordinates": [ -66.661485093624094, -13.318821717759429 ] } },
{ "type": "Feature", "properties": { "Municipality": "Santa Rosa", "Department": "Pando", "Province": "Abuná", "pob_2012": 2395.0, "pob_2024": 2855.0, "diferencia": "460", "incremento_porcentual": 19.21 }, "geometry": { "type": "Point", "coordinates": [ -67.278817263321599, -10.731635496806572 ] } },
{ "type": "Feature", "properties": { "Municipality": "Callapa", "Department": "La Paz", "Province": "Pacajes", "pob_2012": 7289.0, "pob_2024": 7965.0, "diferencia": "676", "incremento_porcentual": 9.27 }, "geometry": { "type": "Point", "coordinates": [ -68.347049500547826, -17.400900193635298 ] } },
{ "type": "Feature", "properties": { "Municipality": "Huari", "Department": "Oruro", "Province": "Sebastián Pagador", "pob_2012": 13897.0, "pob_2024": 13439.0, "diferencia": "-458", "incremento_porcentual": -3.3 }, "geometry": { "type": "Point", "coordinates": [ -66.563685894606721, -19.164324628893461 ] } },
{ "type": "Feature", "properties": { "Municipality": "Santiago de Huata", "Department": "La Paz", "Province": "Omasuyos", "pob_2012": 8562.0, "pob_2024": 9258.0, "diferencia": "696", "incremento_porcentual": 8.13 }, "geometry": { "type": "Point", "coordinates": [ -68.835109300687279, -16.08625659308192 ] } },
{ "type": "Feature", "properties": { "Municipality": "Santiago de Machaca", "Department": "La Paz", "Province": "General José Manuel Pando", "pob_2012": 4593.0, "pob_2024": 6766.0, "diferencia": "2173", "incremento_porcentual": 47.31 }, "geometry": { "type": "Point", "coordinates": [ -69.270592770545463, -17.189523928410111 ] } },
{ "type": "Feature", "properties": { "Municipality": "Santivañez", "Department": "Cochabamba", "Province": "Capinota", "pob_2012": 6527.0, "pob_2024": 7868.0, "diferencia": "1341", "incremento_porcentual": 20.55 }, "geometry": { "type": "Point", "coordinates": [ -66.218048932865614, -17.573590611740499 ] } },
{ "type": "Feature", "properties": { "Municipality": "Santos Mercado", "Department": "Pando", "Province": "Federico Román", "pob_2012": 2165.0, "pob_2024": 2184.0, "diferencia": "019", "incremento_porcentual": 0.88 }, "geometry": { "type": "Point", "coordinates": [ -66.13641849110077, -10.153388901117914 ] } },
{ "type": "Feature", "properties": { "Municipality": "Quillacas", "Department": "Oruro", "Province": "Abaroa", "pob_2012": 4051.0, "pob_2024": 5105.0, "diferencia": "1054", "incremento_porcentual": 26.02 }, "geometry": { "type": "Point", "coordinates": [ -66.813467602129705, -19.31933278773737 ] } },
{ "type": "Feature", "properties": { "Municipality": "Sapahaqui", "Department": "La Paz", "Province": "Loayza", "pob_2012": 12484.0, "pob_2024": 16420.0, "diferencia": "3936", "incremento_porcentual": 31.53 }, "geometry": { "type": "Point", "coordinates": [ -67.836019704250319, -16.953522467758582 ] } },
{ "type": "Feature", "properties": { "Municipality": "Sena", "Department": "Pando", "Province": "Madre de Dios", "pob_2012": 8258.0, "pob_2024": 10264.0, "diferencia": "2006", "incremento_porcentual": 24.29 }, "geometry": { "type": "Point", "coordinates": [ -67.359220669452341, -11.855493376305583 ] } },
{ "type": "Feature", "properties": { "Municipality": "Shinahota", "Department": "Cochabamba", "Province": "Tiraque", "pob_2012": 20841.0, "pob_2024": 27067.0, "diferencia": "6226", "incremento_porcentual": 29.87 }, "geometry": { "type": "Point", "coordinates": [ -65.318495566999459, -17.059323341489971 ] } },
{ "type": "Feature", "properties": { "Municipality": "Sica Sica", "Department": "La Paz", "Province": "Aroma", "pob_2012": 31312.0, "pob_2024": 33546.0, "diferencia": "2234", "incremento_porcentual": 7.13 }, "geometry": { "type": "Point", "coordinates": [ -67.619158817319942, -17.374471881669223 ] } },
{ "type": "Feature", "properties": { "Municipality": "Sicaya", "Department": "Cochabamba", "Province": "Capinota", "pob_2012": 3740.0, "pob_2024": 3949.0, "diferencia": "209", "incremento_porcentual": 5.59 }, "geometry": { "type": "Point", "coordinates": [ -66.341644142796298, -17.790989407970201 ] } },
{ "type": "Feature", "properties": { "Municipality": "Sipe Sipe", "Department": "Cochabamba", "Province": "Quillacollo", "pob_2012": 41571.0, "pob_2024": 55601.0, "diferencia": "14030", "incremento_porcentual": 33.75 }, "geometry": { "type": "Point", "coordinates": [ -66.391636993300509, -17.502957913332644 ] } },
{ "type": "Feature", "properties": { "Municipality": "Sopachuy", "Department": "Chuquisaca", "Province": "Tomina", "pob_2012": 7312.0, "pob_2024": 6886.0, "diferencia": "-426", "incremento_porcentual": -5.83 }, "geometry": { "type": "Point", "coordinates": [ -64.535207991680664, -19.462208740654368 ] } },
{ "type": "Feature", "properties": { "Municipality": "Sorata", "Department": "La Paz", "Province": "Larecaja", "pob_2012": 23512.0, "pob_2024": 30020.0, "diferencia": "6508", "incremento_porcentual": 27.68 }, "geometry": { "type": "Point", "coordinates": [ -68.494127044161132, -15.719340870114904 ] } },
{ "type": "Feature", "properties": { "Municipality": "Sucre", "Department": "Chuquisaca", "Province": "Oropeza", "pob_2012": 261201.0, "pob_2024": 296125.0, "diferencia": "34924", "incremento_porcentual": 13.37 }, "geometry": { "type": "Point", "coordinates": [ -65.250473819132054, -18.937712153593804 ] } },
{ "type": "Feature", "properties": { "Municipality": "Tacachi", "Department": "Cochabamba", "Province": "Punata", "pob_2012": 1303.0, "pob_2024": 1276.0, "diferencia": "-027", "incremento_porcentual": -2.07 }, "geometry": { "type": "Point", "coordinates": [ -65.788322225850067, -17.637946559674873 ] } },
{ "type": "Feature", "properties": { "Municipality": "Tacacoma", "Department": "La Paz", "Province": "Larecaja", "pob_2012": 8182.0, "pob_2024": 9705.0, "diferencia": "1523", "incremento_porcentual": 18.61 }, "geometry": { "type": "Point", "coordinates": [ -68.523013716695687, -15.392451726164264 ] } },
{ "type": "Feature", "properties": { "Municipality": "Tacobamba", "Department": "Potosí", "Province": "Cornelio Saavedra", "pob_2012": 11835.0, "pob_2024": 14208.0, "diferencia": "2373", "incremento_porcentual": 20.05 }, "geometry": { "type": "Point", "coordinates": [ -65.554039704261342, -19.213248079479332 ] } },
{ "type": "Feature", "properties": { "Municipality": "Tacopaya", "Department": "Cochabamba", "Province": "Arque", "pob_2012": 10253.0, "pob_2024": 10549.0, "diferencia": "296", "incremento_porcentual": 2.89 }, "geometry": { "type": "Point", "coordinates": [ -66.625857824781463, -17.826521007529855 ] } },
{ "type": "Feature", "properties": { "Municipality": "Tahua", "Department": "Potosí", "Province": "Daniel Campos", "pob_2012": 1700.0, "pob_2024": 1561.0, "diferencia": "-139", "incremento_porcentual": -8.18 }, "geometry": { "type": "Point", "coordinates": [ -67.943904122125062, -20.287705105563511 ] } },
{ "type": "Feature", "properties": { "Municipality": "Tapacarí", "Department": "Cochabamba", "Province": "Tapacarí", "pob_2012": 24625.0, "pob_2024": 24534.0, "diferencia": "-091", "incremento_porcentual": -0.37 }, "geometry": { "type": "Point", "coordinates": [ -66.651496695021663, -17.570832527077236 ] } },
{ "type": "Feature", "properties": { "Municipality": "Tarabuco", "Department": "Chuquisaca", "Province": "Yamparáez", "pob_2012": 16944.0, "pob_2024": 13251.0, "diferencia": "-3693", "incremento_porcentual": -21.8 }, "geometry": { "type": "Point", "coordinates": [ -64.90982682845997, -19.121497751917396 ] } },
{ "type": "Feature", "properties": { "Municipality": "Taraco", "Department": "La Paz", "Province": "Ingavi", "pob_2012": 6603.0, "pob_2024": 7511.0, "diferencia": "908", "incremento_porcentual": 13.75 }, "geometry": { "type": "Point", "coordinates": [ -68.853561538932979, -16.462596197512475 ] } },
{ "type": "Feature", "properties": { "Municipality": "Tarata", "Department": "Cochabamba", "Province": "Esteban Arze", "pob_2012": 8242.0, "pob_2024": 11235.0, "diferencia": "2993", "incremento_porcentual": 36.31 }, "geometry": { "type": "Point", "coordinates": [ -66.065533135590883, -17.691787639536241 ] } },
{ "type": "Feature", "properties": { "Municipality": "Tarija", "Department": "Tarija", "Province": "Cercado", "pob_2012": 205375.0, "pob_2024": 238942.0, "diferencia": "33567", "incremento_porcentual": 16.34 }, "geometry": { "type": "Point", "coordinates": [ -64.594002811502477, -21.559542800883467 ] } },
{ "type": "Feature", "properties": { "Municipality": "Tarvita", "Department": "Chuquisaca", "Province": "Azurduy", "pob_2012": 14261.0, "pob_2024": 16470.0, "diferencia": "2209", "incremento_porcentual": 15.49 }, "geometry": { "type": "Point", "coordinates": [ -64.561808747077436, -19.772148975096833 ] } },
{ "type": "Feature", "properties": { "Municipality": "Teoponte", "Department": "La Paz", "Province": "Larecaja", "pob_2012": 9349.0, "pob_2024": 13469.0, "diferencia": "4120", "incremento_porcentual": 44.07 }, "geometry": { "type": "Point", "coordinates": [ -67.687235549835236, -15.407381375994619 ] } },
{ "type": "Feature", "properties": { "Municipality": "Tiahuanacu", "Department": "La Paz", "Province": "Ingavi", "pob_2012": 12189.0, "pob_2024": 13568.0, "diferencia": "1379", "incremento_porcentual": 11.31 }, "geometry": { "type": "Point", "coordinates": [ -68.695768572168348, -16.558706854397521 ] } },
{ "type": "Feature", "properties": { "Municipality": "Tinguipaya", "Department": "Potosí", "Province": "Tomás Frías", "pob_2012": 27200.0, "pob_2024": 28829.0, "diferencia": "1629", "incremento_porcentual": 5.99 }, "geometry": { "type": "Point", "coordinates": [ -65.904098782080155, -19.169992018369427 ] } },
{ "type": "Feature", "properties": { "Municipality": "Tipuani", "Department": "La Paz", "Province": "Larecaja", "pob_2012": 9985.0, "pob_2024": 7640.0, "diferencia": "-2345", "incremento_porcentual": -23.49 }, "geometry": { "type": "Point", "coordinates": [ -68.055999464895123, -15.584436338637364 ] } },
{ "type": "Feature", "properties": { "Municipality": "Tiquipaya", "Department": "Cochabamba", "Province": "Quillacollo", "pob_2012": 53904.0, "pob_2024": 61600.0, "diferencia": "7696", "incremento_porcentual": 14.28 }, "geometry": { "type": "Point", "coordinates": [ -66.202056454393414, -17.188606690530086 ] } },
{ "type": "Feature", "properties": { "Municipality": "Tiraque", "Department": "Cochabamba", "Province": "Tiraque", "pob_2012": 21231.0, "pob_2024": 18190.0, "diferencia": "-3041", "incremento_porcentual": -14.32 }, "geometry": { "type": "Point", "coordinates": [ -65.517287098432774, -17.336668172700424 ] } },
{ "type": "Feature", "properties": { "Municipality": "Tito Yupanqui", "Department": "La Paz", "Province": "Manco Kapac", "pob_2012": 6261.0, "pob_2024": 7512.0, "diferencia": "1251", "incremento_porcentual": 19.98 }, "geometry": { "type": "Point", "coordinates": [ -68.959232486855981, -16.180157928062858 ] } },
{ "type": "Feature", "properties": { "Municipality": "Toko", "Department": "Cochabamba", "Province": "Germán Jordán", "pob_2012": 7057.0, "pob_2024": 7208.0, "diferencia": "151", "incremento_porcentual": 2.14 }, "geometry": { "type": "Point", "coordinates": [ -65.920439194503544, -17.64747557361563 ] } },
{ "type": "Feature", "properties": { "Municipality": "Todos Santos", "Department": "Oruro", "Province": "Mejillones", "pob_2012": 727.0, "pob_2024": 1132.0, "diferencia": "405", "incremento_porcentual": 55.71 }, "geometry": { "type": "Point", "coordinates": [ -68.758639257324973, -19.028165911308601 ] } },
{ "type": "Feature", "properties": { "Municipality": "Tolata", "Department": "Cochabamba", "Province": "Germán Jordán", "pob_2012": 5542.0, "pob_2024": 7372.0, "diferencia": "1830", "incremento_porcentual": 33.02 }, "geometry": { "type": "Point", "coordinates": [ -66.002745312244969, -17.526645868683772 ] } },
{ "type": "Feature", "properties": { "Municipality": "Toledo", "Department": "Oruro", "Province": "Saucarí", "pob_2012": 10149.0, "pob_2024": 12115.0, "diferencia": "1966", "incremento_porcentual": 19.37 }, "geometry": { "type": "Point", "coordinates": [ -67.413200852664374, -18.275636478815265 ] } },
{ "type": "Feature", "properties": { "Municipality": "Tomave", "Department": "Potosí", "Province": "Antonio Quijarro", "pob_2012": 14789.0, "pob_2024": 7811.0, "diferencia": "-6978", "incremento_porcentual": -47.18 }, "geometry": { "type": "Point", "coordinates": [ -66.394297713262063, -20.101599080461245 ] } },
{ "type": "Feature", "properties": { "Municipality": "Tomina", "Department": "Chuquisaca", "Province": "Tomina", "pob_2012": 8494.0, "pob_2024": 8341.0, "diferencia": "-153", "incremento_porcentual": -1.8 }, "geometry": { "type": "Point", "coordinates": [ -64.494992035859298, -19.160810300870473 ] } },
{ "type": "Feature", "properties": { "Municipality": "Toro Toro", "Department": "Potosí", "Province": "Chárcas", "pob_2012": 10870.0, "pob_2024": 10719.0, "diferencia": "-151", "incremento_porcentual": -1.39 }, "geometry": { "type": "Point", "coordinates": [ -65.70087461713112, -18.2095714001332 ] } },
{ "type": "Feature", "properties": { "Municipality": "Totora", "Department": "Cochabamba", "Province": "Carrasco", "pob_2012": 14665.0, "pob_2024": 14766.0, "diferencia": "101", "incremento_porcentual": 0.69 }, "geometry": { "type": "Point", "coordinates": [ -65.144331826955266, -17.586307326220442 ] } },
{ "type": "Feature", "properties": { "Municipality": "Totora", "Department": "Oruro", "Province": "San Pedro de Totora", "pob_2012": 5531.0, "pob_2024": 6570.0, "diferencia": "1039", "incremento_porcentual": 18.79 }, "geometry": { "type": "Point", "coordinates": [ -68.179964444802593, -17.854863833085808 ] } },
{ "type": "Feature", "properties": { "Municipality": "Trigal", "Department": "Santa Cruz", "Province": "Vallegrande", "pob_2012": 2135.0, "pob_2024": 2367.0, "diferencia": "232", "incremento_porcentual": 10.87 }, "geometry": { "type": "Point", "coordinates": [ -64.132595491815465, -18.287096321949782 ] } },
{ "type": "Feature", "properties": { "Municipality": "Trinidad", "Department": "Beni", "Province": "Cercado", "pob_2012": 106596.0, "pob_2024": 124357.0, "diferencia": "17761", "incremento_porcentual": 16.66 }, "geometry": { "type": "Point", "coordinates": [ -64.657381362175826, -14.834977541216796 ] } },
{ "type": "Feature", "properties": { "Municipality": "Tupiza", "Department": "Potosí", "Province": "Sur Chichas", "pob_2012": 44814.0, "pob_2024": 45531.0, "diferencia": "717", "incremento_porcentual": 1.6 }, "geometry": { "type": "Point", "coordinates": [ -65.796862000217345, -21.491138360547481 ] } },
{ "type": "Feature", "properties": { "Municipality": "Turco", "Department": "Oruro", "Province": "Sajama", "pob_2012": 5207.0, "pob_2024": 5277.0, "diferencia": "070", "incremento_porcentual": 1.34 }, "geometry": { "type": "Point", "coordinates": [ -68.530232975852257, -18.337055244673486 ] } },
{ "type": "Feature", "properties": { "Municipality": "Umala", "Department": "La Paz", "Province": "Aroma", "pob_2012": 8903.0, "pob_2024": 9021.0, "diferencia": "118", "incremento_porcentual": 1.33 }, "geometry": { "type": "Point", "coordinates": [ -67.997170899071733, -17.403975466594485 ] } },
{ "type": "Feature", "properties": { "Municipality": "Uncía", "Department": "Potosí", "Province": "Rafael Bustillo", "pob_2012": 22020.0, "pob_2024": 22673.0, "diferencia": "653", "incremento_porcentual": 2.97 }, "geometry": { "type": "Point", "coordinates": [ -66.531389279973652, -18.588421592361573 ] } },
{ "type": "Feature", "properties": { "Municipality": "Uriondo", "Department": "Tarija", "Province": "Avilés", "pob_2012": 14781.0, "pob_2024": 15954.0, "diferencia": "1173", "incremento_porcentual": 7.94 }, "geometry": { "type": "Point", "coordinates": [ -64.70844126577127, -21.743022803333293 ] } },
{ "type": "Feature", "properties": { "Municipality": "Urmiri", "Department": "Potosí", "Province": "Tomás Frías", "pob_2012": 2759.0, "pob_2024": 3162.0, "diferencia": "403", "incremento_porcentual": 14.61 }, "geometry": { "type": "Point", "coordinates": [ -66.180715799491992, -19.472775943639473 ] } },
{ "type": "Feature", "properties": { "Municipality": "Urubichá", "Department": "Santa Cruz", "Province": "Guarayos", "pob_2012": 7026.0, "pob_2024": 6528.0, "diferencia": "-498", "incremento_porcentual": -7.09 }, "geometry": { "type": "Point", "coordinates": [ -63.018571549717329, -14.952714888873228 ] } },
{ "type": "Feature", "properties": { "Municipality": "Uyuni", "Department": "Potosí", "Province": "Antonio Quijarro", "pob_2012": 29672.0, "pob_2024": 35118.0, "diferencia": "5446", "incremento_porcentual": 18.35 }, "geometry": { "type": "Point", "coordinates": [ -66.789380606434619, -20.065268471325613 ] } },
{ "type": "Feature", "properties": { "Municipality": "Vacas", "Department": "Cochabamba", "Province": "Arani", "pob_2012": 8940.0, "pob_2024": 8425.0, "diferencia": "-515", "incremento_porcentual": -5.76 }, "geometry": { "type": "Point", "coordinates": [ -65.582587654195777, -17.58905233103436 ] } },
{ "type": "Feature", "properties": { "Municipality": "Vallegrande", "Department": "Santa Cruz", "Province": "Vallegrande", "pob_2012": 17208.0, "pob_2024": 17172.0, "diferencia": "-036", "incremento_porcentual": -0.21 }, "geometry": { "type": "Point", "coordinates": [ -63.940369844890597, -18.783767001252837 ] } },
{ "type": "Feature", "properties": { "Municipality": "Viacha", "Department": "La Paz", "Province": "Ingavi", "pob_2012": 80724.0, "pob_2024": 113453.0, "diferencia": "32729", "incremento_porcentual": 40.54 }, "geometry": { "type": "Point", "coordinates": [ -68.310640167615645, -16.733845244100728 ] } },
{ "type": "Feature", "properties": { "Municipality": "Vila Vila", "Department": "Cochabamba", "Province": "Mizque", "pob_2012": 5459.0, "pob_2024": 5220.0, "diferencia": "-239", "incremento_porcentual": -4.38 }, "geometry": { "type": "Point", "coordinates": [ -65.671427503496986, -17.978257907411791 ] } },
{ "type": "Feature", "properties": { "Municipality": "Villa Abecia", "Department": "Chuquisaca", "Province": "Sur Cinti", "pob_2012": 3514.0, "pob_2024": 5371.0, "diferencia": "1857", "incremento_porcentual": 52.85 }, "geometry": { "type": "Point", "coordinates": [ -65.287729204708754, -20.986315295187069 ] } },
{ "type": "Feature", "properties": { "Municipality": "Ancoraimes", "Department": "La Paz", "Province": "Omasuyos", "pob_2012": 13136.0, "pob_2024": 16900.0, "diferencia": "3764", "incremento_porcentual": 28.65 }, "geometry": { "type": "Point", "coordinates": [ -68.868724562048499, -15.854249460039776 ] } },
{ "type": "Feature", "properties": { "Municipality": "Villa Charcas", "Department": "Chuquisaca", "Province": "Nor Cinti", "pob_2012": 16150.0, "pob_2024": 13924.0, "diferencia": "-2226", "incremento_porcentual": -13.78 }, "geometry": { "type": "Point", "coordinates": [ -64.820734338701442, -20.572139052008605 ] } },
{ "type": "Feature", "properties": { "Municipality": "Cuchumuela", "Department": "Cochabamba", "Province": "Punata", "pob_2012": 2768.0, "pob_2024": 3818.0, "diferencia": "1050", "incremento_porcentual": 37.93 }, "geometry": { "type": "Point", "coordinates": [ -65.771090957399394, -17.689919265132129 ] } },
{ "type": "Feature", "properties": { "Municipality": "Villa Libertad Licoma", "Department": "La Paz", "Province": "Inquisivi", "pob_2012": 5488.0, "pob_2024": 7791.0, "diferencia": "2303", "incremento_porcentual": 41.96 }, "geometry": { "type": "Point", "coordinates": [ -67.203166625207203, -16.811891630535193 ] } },
{ "type": "Feature", "properties": { "Municipality": "Villamontes", "Department": "Tarija", "Province": "Gran Chaco", "pob_2012": 39867.0, "pob_2024": 46010.0, "diferencia": "6143", "incremento_porcentual": 15.41 }, "geometry": { "type": "Point", "coordinates": [ -62.91175134833685, -21.400949608262152 ] } },
{ "type": "Feature", "properties": { "Municipality": "Villa Nueva - Loma Alta", "Department": "Pando", "Province": "Federico Román", "pob_2012": 2801.0, "pob_2024": 2500.0, "diferencia": "-301", "incremento_porcentual": -10.75 }, "geometry": { "type": "Point", "coordinates": [ -66.105513463481401, -10.650986910262034 ] } },
{ "type": "Feature", "properties": { "Municipality": "Icla", "Department": "Chuquisaca", "Province": "Zudáñez", "pob_2012": 7774.0, "pob_2024": 8854.0, "diferencia": "1080", "incremento_porcentual": 13.89 }, "geometry": { "type": "Point", "coordinates": [ -64.746336740332325, -19.465328775893315 ] } },
{ "type": "Feature", "properties": { "Municipality": "Villa Rivero", "Department": "Cochabamba", "Province": "Punata", "pob_2012": 8135.0, "pob_2024": 8551.0, "diferencia": "416", "incremento_porcentual": 5.11 }, "geometry": { "type": "Point", "coordinates": [ -65.852753346567013, -17.648408782558896 ] } },
{ "type": "Feature", "properties": { "Municipality": "Villa Serrano", "Department": "Chuquisaca", "Province": "Belisario Boeto", "pob_2012": 11161.0, "pob_2024": 8961.0, "diferencia": "-2200", "incremento_porcentual": -19.71 },